{
"type": "FeatureCollection",
"name": "busstops",
"crs": { "type": "name", "properties": { "name": "urn:ogc:def:crs:OGC:1.3:CRS84" } },
"features": [
{ "type": "Feature", "properties": { "full_id": "n278911276", "osm_id": "278911276", "osm_type": "node", "highway": "bus_stop", "operator": null, "direction": null, "network": null, "description": null, "name:signed": null, "lit": null, "bin": null, "noname": null, "shelter": null, "name": null, "departures_board": null, "covered": null, "bench": null, "public_transport": "platform", "bus": "yes" }, "geometry": { "type": "Point", "coordinates": [ -59.6070591, 13.1249929 ] } },
{ "type": "Feature", "properties": { "full_id": "n1090200217", "osm_id": "1090200217", "osm_type": "node", "highway": "bus_stop", "operator": null, "direction": null, "network": null, "description": null, "name:signed": null, "lit": null, "bin": null, "noname": null, "shelter": "yes", "name": "Kelly", "departures_board": "no", "covered": "no", "bench": "yes", "public_transport": "platform", "bus": "yes" }, "geometry": { "type": "Point", "coordinates": [ -59.5797814, 13.0979789 ] } },
{ "type": "Feature", "properties": { "full_id": "n1682331343", "osm_id": "1682331343", "osm_type": "node", "highway": "bus_stop", "operator": null, "direction": null, "network": null, "description": null, "name:signed": null, "lit": null, "bin": null, "noname": null, "shelter": "yes", "name": "Hope", "departures_board": "no", "covered": "yes", "bench": "yes", "public_transport": "platform", "bus": "yes" }, "geometry": { "type": "Point", "coordinates": [ -59.563653, 13.0697627 ] } },
{ "type": "Feature", "properties": { "full_id": "n3607188206", "osm_id": "3607188206", "osm_type": "node", "highway": "bus_stop", "operator": null, "direction": null, "network": null, "description": null, "name:signed": null, "lit": null, "bin": null, "noname": null, "shelter": null, "name": null, "departures_board": null, "covered": null, "bench": null, "public_transport": null, "bus": null }, "geometry": { "type": "Point", "coordinates": [ -59.5091976, 13.0602998 ] } },
{ "type": "Feature", "properties": { "full_id": "n3869506896", "osm_id": "3869506896", "osm_type": "node", "highway": "bus_stop", "operator": null, "direction": null, "network": null, "description": null, "name:signed": null, "lit": null, "bin": null, "noname": null, "shelter": null, "name": null, "departures_board": null, "covered": null, "bench": null, "public_transport": "platform", "bus": "yes" }, "geometry": { "type": "Point", "coordinates": [ -59.4699712, 13.1079638 ] } },
{ "type": "Feature", "properties": { "full_id": "n3869525778", "osm_id": "3869525778", "osm_type": "node", "highway": "bus_stop", "operator": null, "direction": null, "network": null, "description": null, "name:signed": null, "lit": null, "bin": null, "noname": "yes", "shelter": null, "name": null, "departures_board": null, "covered": null, "bench": null, "public_transport": "platform", "bus": "yes" }, "geometry": { "type": "Point", "coordinates": [ -59.4734381, 13.1130605 ] } },
{ "type": "Feature", "properties": { "full_id": "n3871105525", "osm_id": "3871105525", "osm_type": "node", "highway": "bus_stop", "operator": null, "direction": null, "network": null, "description": null, "name:signed": null, "lit": null, "bin": null, "noname": "yes", "shelter": null, "name": null, "departures_board": null, "covered": null, "bench": null, "public_transport": "platform", "bus": "yes" }, "geometry": { "type": "Point", "coordinates": [ -59.4716299, 13.1100043 ] } },
{ "type": "Feature", "properties": { "full_id": "n3871112234", "osm_id": "3871112234", "osm_type": "node", "highway": "bus_stop", "operator": null, "direction": null, "network": null, "description": null, "name:signed": null, "lit": null, "bin": null, "noname": "yes", "shelter": null, "name": null, "departures_board": null, "covered": null, "bench": null, "public_transport": "platform", "bus": "yes" }, "geometry": { "type": "Point", "coordinates": [ -59.4778676, 13.1159494 ] } },
{ "type": "Feature", "properties": { "full_id": "n3871126194", "osm_id": "3871126194", "osm_type": "node", "highway": "bus_stop", "operator": null, "direction": null, "network": null, "description": null, "name:signed": null, "lit": null, "bin": null, "noname": "yes", "shelter": null, "name": null, "departures_board": null, "covered": null, "bench": null, "public_transport": "platform", "bus": "yes" }, "geometry": { "type": "Point", "coordinates": [ -59.4772375, 13.1169405 ] } },
{ "type": "Feature", "properties": { "full_id": "n3871286804", "osm_id": "3871286804", "osm_type": "node", "highway": "bus_stop", "operator": null, "direction": null, "network": null, "description": null, "name:signed": null, "lit": null, "bin": null, "noname": null, "shelter": null, "name": null, "departures_board": null, "covered": null, "bench": null, "public_transport": "platform", "bus": "yes" }, "geometry": { "type": "Point", "coordinates": [ -59.4718823, 13.1104074 ] } },
{ "type": "Feature", "properties": { "full_id": "n3871286805", "osm_id": "3871286805", "osm_type": "node", "highway": "bus_stop", "operator": null, "direction": null, "network": null, "description": null, "name:signed": null, "lit": null, "bin": null, "noname": null, "shelter": null, "name": null, "departures_board": null, "covered": null, "bench": null, "public_transport": "platform", "bus": "yes" }, "geometry": { "type": "Point", "coordinates": [ -59.4696538, 13.1076219 ] } },
{ "type": "Feature", "properties": { "full_id": "n3872205144", "osm_id": "3872205144", "osm_type": "node", "highway": "bus_stop", "operator": null, "direction": null, "network": null, "description": null, "name:signed": null, "lit": null, "bin": null, "noname": null, "shelter": "yes", "name": null, "departures_board": null, "covered": "yes", "bench": "yes", "public_transport": null, "bus": null }, "geometry": { "type": "Point", "coordinates": [ -59.4885849, 13.0810261 ] } },
{ "type": "Feature", "properties": { "full_id": "n3873017481", "osm_id": "3873017481", "osm_type": "node", "highway": "bus_stop", "operator": null, "direction": null, "network": null, "description": null, "name:signed": null, "lit": null, "bin": null, "noname": null, "shelter": null, "name": null, "departures_board": null, "covered": null, "bench": null, "public_transport": null, "bus": null }, "geometry": { "type": "Point", "coordinates": [ -59.5045504, 13.0798009 ] } },
{ "type": "Feature", "properties": { "full_id": "n3873035690", "osm_id": "3873035690", "osm_type": "node", "highway": "bus_stop", "operator": null, "direction": null, "network": null, "description": null, "name:signed": null, "lit": null, "bin": null, "noname": null, "shelter": null, "name": "Paige", "departures_board": null, "covered": null, "bench": null, "public_transport": null, "bus": null }, "geometry": { "type": "Point", "coordinates": [ -59.5085155, 13.0785833 ] } },
{ "type": "Feature", "properties": { "full_id": "n3873040108", "osm_id": "3873040108", "osm_type": "node", "highway": "bus_stop", "operator": null, "direction": null, "network": null, "description": null, "name:signed": null, "lit": null, "bin": null, "noname": null, "shelter": null, "name": null, "departures_board": null, "covered": null, "bench": null, "public_transport": null, "bus": null }, "geometry": { "type": "Point", "coordinates": [ -59.5085716, 13.0786736 ] } },
{ "type": "Feature", "properties": { "full_id": "n3873087873", "osm_id": "3873087873", "osm_type": "node", "highway": "bus_stop", "operator": null, "direction": null, "network": null, "description": null, "name:signed": null, "lit": null, "bin": null, "noname": null, "shelter": null, "name": null, "departures_board": null, "covered": null, "bench": null, "public_transport": null, "bus": null }, "geometry": { "type": "Point", "coordinates": [ -59.5161897, 13.0767881 ] } },
{ "type": "Feature", "properties": { "full_id": "n3873151905", "osm_id": "3873151905", "osm_type": "node", "highway": "bus_stop", "operator": null, "direction": null, "network": null, "description": null, "name:signed": null, "lit": null, "bin": null, "noname": null, "shelter": "yes", "name": "Sophia", "departures_board": null, "covered": null, "bench": "yes", "public_transport": null, "bus": null }, "geometry": { "type": "Point", "coordinates": [ -59.5259103, 13.0734386 ] } },
{ "type": "Feature", "properties": { "full_id": "n3873168968", "osm_id": "3873168968", "osm_type": "node", "highway": "bus_stop", "operator": null, "direction": null, "network": null, "description": null, "name:signed": null, "lit": null, "bin": null, "noname": null, "shelter": "yes", "name": null, "departures_board": "no", "covered": null, "bench": null, "public_transport": "platform", "bus": "yes" }, "geometry": { "type": "Point", "coordinates": [ -59.5312382, 13.0666147 ] } },
{ "type": "Feature", "properties": { "full_id": "n3873270581", "osm_id": "3873270581", "osm_type": "node", "highway": "bus_stop", "operator": null, "direction": null, "network": null, "description": null, "name:signed": null, "lit": "no", "bin": "no", "noname": null, "shelter": "yes", "name": "Berger", "departures_board": "no", "covered": null, "bench": "yes", "public_transport": "platform", "bus": "yes" }, "geometry": { "type": "Point", "coordinates": [ -59.5415932, 13.0630647 ] } },
{ "type": "Feature", "properties": { "full_id": "n3873297644", "osm_id": "3873297644", "osm_type": "node", "highway": "bus_stop", "operator": null, "direction": null, "network": null, "description": null, "name:signed": null, "lit": "no", "bin": "no", "noname": null, "shelter": "yes", "name": "Oistins Bus Terminal", "departures_board": "no", "covered": "yes", "bench": "yes", "public_transport": "platform", "bus": "yes" }, "geometry": { "type": "Point", "coordinates": [ -59.5414857, 13.0627394 ] } },
{ "type": "Feature", "properties": { "full_id": "n3873345157", "osm_id": "3873345157", "osm_type": "node", "highway": "bus_stop", "operator": null, "direction": null, "network": null, "description": null, "name:signed": null, "lit": null, "bin": null, "noname": null, "shelter": "yes", "name": "Becky", "departures_board": "no", "covered": "yes", "bench": "yes", "public_transport": "platform", "bus": "yes" }, "geometry": { "type": "Point", "coordinates": [ -59.5428123, 13.0637621 ] } },
{ "type": "Feature", "properties": { "full_id": "n3873452898", "osm_id": "3873452898", "osm_type": "node", "highway": "bus_stop", "operator": null, "direction": null, "network": null, "description": null, "name:signed": null, "lit": "no", "bin": "no", "noname": null, "shelter": "yes", "name": "Lawrie", "departures_board": "no", "covered": null, "bench": "yes", "public_transport": "platform", "bus": "yes" }, "geometry": { "type": "Point", "coordinates": [ -59.5452555, 13.0643911 ] } },
{ "type": "Feature", "properties": { "full_id": "n3873457330", "osm_id": "3873457330", "osm_type": "node", "highway": "bus_stop", "operator": null, "direction": null, "network": null, "description": null, "name:signed": null, "lit": null, "bin": "no", "noname": null, "shelter": "yes", "name": "Sophia", "departures_board": "no", "covered": null, "bench": "yes", "public_transport": "platform", "bus": "yes" }, "geometry": { "type": "Point", "coordinates": [ -59.5440696, 13.0641667 ] } },
{ "type": "Feature", "properties": { "full_id": "n3873543000", "osm_id": "3873543000", "osm_type": "node", "highway": "bus_stop", "operator": null, "direction": null, "network": null, "description": null, "name:signed": null, "lit": null, "bin": null, "noname": null, "shelter": "yes", "name": "Tasha", "departures_board": "no", "covered": null, "bench": null, "public_transport": "platform", "bus": "yes" }, "geometry": { "type": "Point", "coordinates": [ -59.5497418, 13.0652259 ] } },
{ "type": "Feature", "properties": { "full_id": "n3873643981", "osm_id": "3873643981", "osm_type": "node", "highway": "bus_stop", "operator": null, "direction": null, "network": null, "description": null, "name:signed": null, "lit": null, "bin": null, "noname": null, "shelter": "yes", "name": null, "departures_board": "no", "covered": null, "bench": null, "public_transport": "platform", "bus": "yes" }, "geometry": { "type": "Point", "coordinates": [ -59.5581349, 13.0683564 ] } },
{ "type": "Feature", "properties": { "full_id": "n3873643982", "osm_id": "3873643982", "osm_type": "node", "highway": "bus_stop", "operator": null, "direction": null, "network": null, "description": null, "name:signed": null, "lit": null, "bin": null, "noname": null, "shelter": "yes", "name": "Julia", "departures_board": "no", "covered": null, "bench": null, "public_transport": "platform", "bus": "yes" }, "geometry": { "type": "Point", "coordinates": [ -59.5601819, 13.0689725 ] } },
{ "type": "Feature", "properties": { "full_id": "n3873649567", "osm_id": "3873649567", "osm_type": "node", "highway": "bus_stop", "operator": null, "direction": null, "network": null, "description": null, "name:signed": null, "lit": null, "bin": null, "noname": null, "shelter": "yes", "name": "Elle", "departures_board": "no", "covered": null, "bench": null, "public_transport": "platform", "bus": "yes" }, "geometry": { "type": "Point", "coordinates": [ -59.5605788, 13.06898 ] } },
{ "type": "Feature", "properties": { "full_id": "n3873708378", "osm_id": "3873708378", "osm_type": "node", "highway": "bus_stop", "operator": null, "direction": null, "network": null, "description": null, "name:signed": null, "lit": null, "bin": null, "noname": null, "shelter": "yes", "name": "Ruth", "departures_board": "no", "covered": "yes", "bench": "yes", "public_transport": "platform", "bus": "yes" }, "geometry": { "type": "Point", "coordinates": [ -59.5629604, 13.06971 ] } },
{ "type": "Feature", "properties": { "full_id": "n3874973878", "osm_id": "3874973878", "osm_type": "node", "highway": "bus_stop", "operator": null, "direction": null, "network": null, "description": null, "name:signed": null, "lit": null, "bin": null, "noname": null, "shelter": "yes", "name": "Elizabeth", "departures_board": "no", "covered": "yes", "bench": null, "public_transport": "platform", "bus": "yes" }, "geometry": { "type": "Point", "coordinates": [ -59.5699751, 13.0693011 ] } },
{ "type": "Feature", "properties": { "full_id": "n3875032651", "osm_id": "3875032651", "osm_type": "node", "highway": "bus_stop", "operator": null, "direction": null, "network": null, "description": null, "name:signed": null, "lit": null, "bin": null, "noname": null, "shelter": "yes", "name": "Melissa", "departures_board": "no", "covered": "yes", "bench": "yes", "public_transport": "platform", "bus": "yes" }, "geometry": { "type": "Point", "coordinates": [ -59.572386, 13.069355 ] } },
{ "type": "Feature", "properties": { "full_id": "n3875063621", "osm_id": "3875063621", "osm_type": "node", "highway": "bus_stop", "operator": null, "direction": null, "network": null, "description": null, "name:signed": null, "lit": null, "bin": null, "noname": null, "shelter": "yes", "name": "Krista", "departures_board": "no", "covered": "yes", "bench": "yes", "public_transport": "platform", "bus": "yes" }, "geometry": { "type": "Point", "coordinates": [ -59.5749416, 13.0692311 ] } },
{ "type": "Feature", "properties": { "full_id": "n3875063626", "osm_id": "3875063626", "osm_type": "node", "highway": "bus_stop", "operator": null, "direction": null, "network": null, "description": null, "name:signed": null, "lit": null, "bin": null, "noname": null, "shelter": "yes", "name": "Jade", "departures_board": "no", "covered": "yes", "bench": "yes", "public_transport": "platform", "bus": "yes" }, "geometry": { "type": "Point", "coordinates": [ -59.5754296, 13.0690568 ] } },
{ "type": "Feature", "properties": { "full_id": "n3875100954", "osm_id": "3875100954", "osm_type": "node", "highway": "bus_stop", "operator": null, "direction": null, "network": null, "description": null, "name:signed": null, "lit": null, "bin": null, "noname": null, "shelter": "yes", "name": null, "departures_board": "no", "covered": "yes", "bench": "yes", "public_transport": "platform", "bus": "yes" }, "geometry": { "type": "Point", "coordinates": [ -59.5791448, 13.0706996 ] } },
{ "type": "Feature", "properties": { "full_id": "n3875101179", "osm_id": "3875101179", "osm_type": "node", "highway": "bus_stop", "operator": null, "direction": null, "network": null, "description": null, "name:signed": null, "lit": null, "bin": null, "noname": null, "shelter": "yes", "name": null, "departures_board": "no", "covered": "yes", "bench": "yes", "public_transport": "platform", "bus": "yes" }, "geometry": { "type": "Point", "coordinates": [ -59.5809012, 13.0711525 ] } },
{ "type": "Feature", "properties": { "full_id": "n3875121063", "osm_id": "3875121063", "osm_type": "node", "highway": "bus_stop", "operator": null, "direction": null, "network": null, "description": null, "name:signed": null, "lit": null, "bin": null, "noname": null, "shelter": "yes", "name": "Justine", "departures_board": "no", "covered": "yes", "bench": "yes", "public_transport": "platform", "bus": "yes" }, "geometry": { "type": "Point", "coordinates": [ -59.5791824, 13.0705441 ] } },
{ "type": "Feature", "properties": { "full_id": "n3875151235", "osm_id": "3875151235", "osm_type": "node", "highway": "bus_stop", "operator": null, "direction": null, "network": null, "description": null, "name:signed": null, "lit": null, "bin": null, "noname": null, "shelter": "yes", "name": "Shandra", "departures_board": "no", "covered": "yes", "bench": "yes", "public_transport": "platform", "bus": "yes" }, "geometry": { "type": "Point", "coordinates": [ -59.5822765, 13.0713642 ] } },
{ "type": "Feature", "properties": { "full_id": "n3875159901", "osm_id": "3875159901", "osm_type": "node", "highway": "bus_stop", "operator": null, "direction": null, "network": null, "description": null, "name:signed": null, "lit": null, "bin": null, "noname": null, "shelter": "yes", "name": "Dorian", "departures_board": "no", "covered": "yes", "bench": "yes", "public_transport": "platform", "bus": "yes" }, "geometry": { "type": "Point", "coordinates": [ -59.5829196, 13.0716272 ] } },
{ "type": "Feature", "properties": { "full_id": "n3875210428", "osm_id": "3875210428", "osm_type": "node", "highway": "bus_stop", "operator": null, "direction": null, "network": null, "description": null, "name:signed": null, "lit": null, "bin": null, "noname": null, "shelter": "yes", "name": "Cheryl", "departures_board": "no", "covered": "yes", "bench": "yes", "public_transport": "platform", "bus": "yes" }, "geometry": { "type": "Point", "coordinates": [ -59.5844939, 13.0718799 ] } },
{ "type": "Feature", "properties": { "full_id": "n3875222500", "osm_id": "3875222500", "osm_type": "node", "highway": "bus_stop", "operator": null, "direction": null, "network": null, "description": null, "name:signed": null, "lit": null, "bin": null, "noname": null, "shelter": "yes", "name": "Samantha", "departures_board": "no", "covered": "yes", "bench": "yes", "public_transport": "platform", "bus": "yes" }, "geometry": { "type": "Point", "coordinates": [ -59.5848858, 13.0717614 ] } },
{ "type": "Feature", "properties": { "full_id": "n3875290874", "osm_id": "3875290874", "osm_type": "node", "highway": "bus_stop", "operator": null, "direction": null, "network": null, "description": null, "name:signed": null, "lit": null, "bin": null, "noname": null, "shelter": null, "name": "Carol", "departures_board": null, "covered": "yes", "bench": "yes", "public_transport": "platform", "bus": "yes" }, "geometry": { "type": "Point", "coordinates": [ -59.5942781, 13.074032 ] } },
{ "type": "Feature", "properties": { "full_id": "n3875298765", "osm_id": "3875298765", "osm_type": "node", "highway": "bus_stop", "operator": null, "direction": null, "network": null, "description": null, "name:signed": null, "lit": null, "bin": null, "noname": null, "shelter": null, "name": "Alexandra", "departures_board": null, "covered": "yes", "bench": "yes", "public_transport": "platform", "bus": "yes" }, "geometry": { "type": "Point", "coordinates": [ -59.5938802, 13.0741612 ] } },
{ "type": "Feature", "properties": { "full_id": "n3875302103", "osm_id": "3875302103", "osm_type": "node", "highway": "bus_stop", "operator": null, "direction": null, "network": null, "description": null, "name:signed": null, "lit": null, "bin": null, "noname": null, "shelter": null, "name": "Chloe", "departures_board": null, "covered": "yes", "bench": "yes", "public_transport": "platform", "bus": "yes" }, "geometry": { "type": "Point", "coordinates": [ -59.5961095, 13.0740225 ] } },
{ "type": "Feature", "properties": { "full_id": "n3875306920", "osm_id": "3875306920", "osm_type": "node", "highway": "bus_stop", "operator": null, "direction": null, "network": null, "description": null, "name:signed": null, "lit": null, "bin": null, "noname": null, "shelter": null, "name": "Lynne Marie", "departures_board": null, "covered": "yes", "bench": "yes", "public_transport": "platform", "bus": "yes" }, "geometry": { "type": "Point", "coordinates": [ -59.5960119, 13.0741514 ] } },
{ "type": "Feature", "properties": { "full_id": "n3875315559", "osm_id": "3875315559", "osm_type": "node", "highway": "bus_stop", "operator": null, "direction": null, "network": null, "description": null, "name:signed": null, "lit": null, "bin": null, "noname": null, "shelter": null, "name": "Layla", "departures_board": null, "covered": "yes", "bench": "yes", "public_transport": "platform", "bus": "yes" }, "geometry": { "type": "Point", "coordinates": [ -59.5981603, 13.0742737 ] } },
{ "type": "Feature", "properties": { "full_id": "n3875315817", "osm_id": "3875315817", "osm_type": "node", "highway": "bus_stop", "operator": null, "direction": null, "network": null, "description": null, "name:signed": null, "lit": null, "bin": null, "noname": null, "shelter": "yes", "name": "Linda", "departures_board": null, "covered": "yes", "bench": "yes", "public_transport": "platform", "bus": "yes" }, "geometry": { "type": "Point", "coordinates": [ -59.599562, 13.0746691 ] } },
{ "type": "Feature", "properties": { "full_id": "n3875341653", "osm_id": "3875341653", "osm_type": "node", "highway": "bus_stop", "operator": null, "direction": null, "network": null, "description": null, "name:signed": null, "lit": null, "bin": null, "noname": null, "shelter": null, "name": "Tanya", "departures_board": null, "covered": "yes", "bench": "yes", "public_transport": "platform", "bus": "yes" }, "geometry": { "type": "Point", "coordinates": [ -59.6037022, 13.077413 ] } },
{ "type": "Feature", "properties": { "full_id": "n3875438861", "osm_id": "3875438861", "osm_type": "node", "highway": "bus_stop", "operator": null, "direction": null, "network": null, "description": null, "name:signed": null, "lit": null, "bin": null, "noname": null, "shelter": "yes", "name": "Tammy", "departures_board": null, "covered": "yes", "bench": "yes", "public_transport": "platform", "bus": "yes" }, "geometry": { "type": "Point", "coordinates": [ -59.6081346, 13.0840944 ] } },
{ "type": "Feature", "properties": { "full_id": "n3875438908", "osm_id": "3875438908", "osm_type": "node", "highway": "bus_stop", "operator": null, "direction": null, "network": null, "description": null, "name:signed": null, "lit": null, "bin": null, "noname": null, "shelter": "yes", "name": "Leah", "departures_board": null, "covered": "yes", "bench": "yes", "public_transport": "platform", "bus": "yes" }, "geometry": { "type": "Point", "coordinates": [ -59.6092152, 13.0866531 ] } },
{ "type": "Feature", "properties": { "full_id": "n3875441857", "osm_id": "3875441857", "osm_type": "node", "highway": "bus_stop", "operator": null, "direction": null, "network": null, "description": null, "name:signed": null, "lit": null, "bin": null, "noname": null, "shelter": "yes", "name": null, "departures_board": null, "covered": "yes", "bench": "yes", "public_transport": "platform", "bus": "yes" }, "geometry": { "type": "Point", "coordinates": [ -59.6091041, 13.0862618 ] } },
{ "type": "Feature", "properties": { "full_id": "n3875624317", "osm_id": "3875624317", "osm_type": "node", "highway": "bus_stop", "operator": null, "direction": null, "network": null, "description": null, "name:signed": null, "lit": null, "bin": null, "noname": null, "shelter": "yes", "name": "Linnel", "departures_board": null, "covered": "yes", "bench": "yes", "public_transport": "platform", "bus": "yes" }, "geometry": { "type": "Point", "coordinates": [ -59.5929538, 13.093286 ] } },
{ "type": "Feature", "properties": { "full_id": "n3875660161", "osm_id": "3875660161", "osm_type": "node", "highway": "bus_stop", "operator": null, "direction": null, "network": null, "description": null, "name:signed": null, "lit": null, "bin": null, "noname": null, "shelter": "yes", "name": "Assabi", "departures_board": null, "covered": "yes", "bench": "yes", "public_transport": "platform", "bus": "yes" }, "geometry": { "type": "Point", "coordinates": [ -59.5921347, 13.0929903 ] } },
{ "type": "Feature", "properties": { "full_id": "n3875661236", "osm_id": "3875661236", "osm_type": "node", "highway": "bus_stop", "operator": null, "direction": null, "network": null, "description": null, "name:signed": null, "lit": null, "bin": null, "noname": null, "shelter": "yes", "name": "Jannah", "departures_board": "no", "covered": "yes", "bench": "yes", "public_transport": "platform", "bus": "yes" }, "geometry": { "type": "Point", "coordinates": [ -59.5877406, 13.0918207 ] } },
{ "type": "Feature", "properties": { "full_id": "n3876494717", "osm_id": "3876494717", "osm_type": "node", "highway": "bus_stop", "operator": null, "direction": null, "network": null, "description": null, "name:signed": null, "lit": null, "bin": null, "noname": null, "shelter": "yes", "name": "Flaxie", "departures_board": "no", "covered": "yes", "bench": "yes", "public_transport": "platform", "bus": "yes" }, "geometry": { "type": "Point", "coordinates": [ -59.5822767, 13.0911415 ] } },
{ "type": "Feature", "properties": { "full_id": "n3876518143", "osm_id": "3876518143", "osm_type": "node", "highway": "bus_stop", "operator": null, "direction": null, "network": null, "description": null, "name:signed": null, "lit": null, "bin": null, "noname": null, "shelter": "yes", "name": "Jennifer", "departures_board": "no", "covered": "yes", "bench": "yes", "public_transport": "platform", "bus": "yes" }, "geometry": { "type": "Point", "coordinates": [ -59.5792407, 13.0938789 ] } },
{ "type": "Feature", "properties": { "full_id": "n3876717709", "osm_id": "3876717709", "osm_type": "node", "highway": "bus_stop", "operator": null, "direction": null, "network": null, "description": null, "name:signed": null, "lit": null, "bin": null, "noname": null, "shelter": null, "name": "Andrea", "departures_board": null, "covered": "yes", "bench": "yes", "public_transport": "platform", "bus": "yes" }, "geometry": { "type": "Point", "coordinates": [ -59.5846169, 13.0976465 ] } },
{ "type": "Feature", "properties": { "full_id": "n3876768858", "osm_id": "3876768858", "osm_type": "node", "highway": "bus_stop", "operator": null, "direction": null, "network": null, "description": null, "name:signed": null, "lit": null, "bin": null, "noname": null, "shelter": null, "name": "Tanja", "departures_board": null, "covered": "yes", "bench": "yes", "public_transport": "platform", "bus": "yes" }, "geometry": { "type": "Point", "coordinates": [ -59.5963947, 13.1022172 ] } },
{ "type": "Feature", "properties": { "full_id": "n3876774863", "osm_id": "3876774863", "osm_type": "node", "highway": "bus_stop", "operator": null, "direction": null, "network": null, "description": null, "name:signed": null, "lit": null, "bin": null, "noname": null, "shelter": null, "name": "Corless", "departures_board": null, "covered": "yes", "bench": "yes", "public_transport": "platform", "bus": "yes" }, "geometry": { "type": "Point", "coordinates": [ -59.5944145, 13.1023876 ] } },
{ "type": "Feature", "properties": { "full_id": "n3876790590", "osm_id": "3876790590", "osm_type": "node", "highway": "bus_stop", "operator": null, "direction": null, "network": null, "description": null, "name:signed": null, "lit": null, "bin": null, "noname": null, "shelter": null, "name": "Tina", "departures_board": null, "covered": "yes", "bench": "yes", "public_transport": "platform", "bus": "yes" }, "geometry": { "type": "Point", "coordinates": [ -59.5939077, 13.1025786 ] } },
{ "type": "Feature", "properties": { "full_id": "n3876790591", "osm_id": "3876790591", "osm_type": "node", "highway": "bus_stop", "operator": null, "direction": null, "network": null, "description": null, "name:signed": null, "lit": null, "bin": null, "noname": null, "shelter": "yes", "name": "Lisa", "departures_board": "no", "covered": "yes", "bench": "yes", "public_transport": "platform", "bus": "yes" }, "geometry": { "type": "Point", "coordinates": [ -59.5810924, 13.1048784 ] } },
{ "type": "Feature", "properties": { "full_id": "n3876794291", "osm_id": "3876794291", "osm_type": "node", "highway": "bus_stop", "operator": null, "direction": null, "network": null, "description": null, "name:signed": null, "lit": null, "bin": null, "noname": null, "shelter": "yes", "name": "Hepburn", "departures_board": "no", "covered": "yes", "bench": "yes", "public_transport": "platform", "bus": "yes" }, "geometry": { "type": "Point", "coordinates": [ -59.5802136, 13.1058538 ] } },
{ "type": "Feature", "properties": { "full_id": "n3877100488", "osm_id": "3877100488", "osm_type": "node", "highway": "bus_stop", "operator": null, "direction": null, "network": null, "description": null, "name:signed": null, "lit": null, "bin": null, "noname": null, "shelter": null, "name": "Lilly-Hope", "departures_board": null, "covered": "yes", "bench": "yes", "public_transport": "platform", "bus": "yes" }, "geometry": { "type": "Point", "coordinates": [ -59.6102138, 13.1455854 ] } },
{ "type": "Feature", "properties": { "full_id": "n3877287691", "osm_id": "3877287691", "osm_type": "node", "highway": "bus_stop", "operator": null, "direction": null, "network": null, "description": null, "name:signed": null, "lit": null, "bin": null, "noname": null, "shelter": null, "name": null, "departures_board": null, "covered": "yes", "bench": "yes", "public_transport": null, "bus": null }, "geometry": { "type": "Point", "coordinates": [ -59.613576, 13.1807572 ] } },
{ "type": "Feature", "properties": { "full_id": "n3877287692", "osm_id": "3877287692", "osm_type": "node", "highway": "bus_stop", "operator": null, "direction": null, "network": null, "description": null, "name:signed": null, "lit": null, "bin": null, "noname": null, "shelter": null, "name": null, "departures_board": null, "covered": "yes", "bench": "yes", "public_transport": null, "bus": null }, "geometry": { "type": "Point", "coordinates": [ -59.6121683, 13.1849135 ] } },
{ "type": "Feature", "properties": { "full_id": "n3882624287", "osm_id": "3882624287", "osm_type": "node", "highway": "bus_stop", "operator": null, "direction": null, "network": null, "description": null, "name:signed": null, "lit": null, "bin": null, "noname": null, "shelter": null, "name": "Tina", "departures_board": null, "covered": "yes", "bench": "yes", "public_transport": null, "bus": null }, "geometry": { "type": "Point", "coordinates": [ -59.6420461, 13.233335 ] } },
{ "type": "Feature", "properties": { "full_id": "n3882655387", "osm_id": "3882655387", "osm_type": "node", "highway": "bus_stop", "operator": null, "direction": null, "network": null, "description": null, "name:signed": null, "lit": null, "bin": null, "noname": null, "shelter": null, "name": "Marcy", "departures_board": null, "covered": "yes", "bench": "yes", "public_transport": null, "bus": null }, "geometry": { "type": "Point", "coordinates": [ -59.6412837, 13.2172137 ] } },
{ "type": "Feature", "properties": { "full_id": "n3882658275", "osm_id": "3882658275", "osm_type": "node", "highway": "bus_stop", "operator": null, "direction": null, "network": null, "description": null, "name:signed": null, "lit": null, "bin": null, "noname": null, "shelter": null, "name": "Janice", "departures_board": null, "covered": "yes", "bench": "yes", "public_transport": null, "bus": null }, "geometry": { "type": "Point", "coordinates": [ -59.6414623, 13.217427 ] } },
{ "type": "Feature", "properties": { "full_id": "n3882665691", "osm_id": "3882665691", "osm_type": "node", "highway": "bus_stop", "operator": null, "direction": null, "network": null, "description": null, "name:signed": null, "lit": null, "bin": null, "noname": null, "shelter": null, "name": "Nicky", "departures_board": null, "covered": "yes", "bench": "yes", "public_transport": null, "bus": null }, "geometry": { "type": "Point", "coordinates": [ -59.6402361, 13.214806 ] } },
{ "type": "Feature", "properties": { "full_id": "n3882683990", "osm_id": "3882683990", "osm_type": "node", "highway": "bus_stop", "operator": null, "direction": null, "network": null, "description": null, "name:signed": null, "lit": null, "bin": null, "noname": null, "shelter": null, "name": "Jean", "departures_board": null, "covered": "yes", "bench": "yes", "public_transport": null, "bus": null }, "geometry": { "type": "Point", "coordinates": [ -59.6395471, 13.2018235 ] } },
{ "type": "Feature", "properties": { "full_id": "n3883729407", "osm_id": "3883729407", "osm_type": "node", "highway": "bus_stop", "operator": null, "direction": null, "network": null, "description": null, "name:signed": null, "lit": null, "bin": null, "noname": null, "shelter": null, "name": "Gabrielle", "departures_board": null, "covered": "yes", "bench": "yes", "public_transport": null, "bus": null }, "geometry": { "type": "Point", "coordinates": [ -59.636495, 13.1882952 ] } },
{ "type": "Feature", "properties": { "full_id": "n3883747136", "osm_id": "3883747136", "osm_type": "node", "highway": "bus_stop", "operator": null, "direction": null, "network": null, "description": null, "name:signed": null, "lit": null, "bin": null, "noname": null, "shelter": "yes", "name": "Cecily", "departures_board": null, "covered": "yes", "bench": "yes", "public_transport": "platform", "bus": "yes" }, "geometry": { "type": "Point", "coordinates": [ -59.6364739, 13.1867332 ] } },
{ "type": "Feature", "properties": { "full_id": "n3883761142", "osm_id": "3883761142", "osm_type": "node", "highway": "bus_stop", "operator": null, "direction": null, "network": null, "description": null, "name:signed": null, "lit": null, "bin": null, "noname": null, "shelter": null, "name": "Claire", "departures_board": null, "covered": "yes", "bench": "yes", "public_transport": "platform", "bus": "yes" }, "geometry": { "type": "Point", "coordinates": [ -59.6385118, 13.1825018 ] } },
{ "type": "Feature", "properties": { "full_id": "n3883842421", "osm_id": "3883842421", "osm_type": "node", "highway": "bus_stop", "operator": null, "direction": null, "network": null, "description": null, "name:signed": null, "lit": null, "bin": null, "noname": null, "shelter": null, "name": "Oretta", "departures_board": null, "covered": "yes", "bench": "yes", "public_transport": null, "bus": null }, "geometry": { "type": "Point", "coordinates": [ -59.6365503, 13.1658508 ] } },
{ "type": "Feature", "properties": { "full_id": "n3883870831", "osm_id": "3883870831", "osm_type": "node", "highway": "bus_stop", "operator": null, "direction": null, "network": null, "description": null, "name:signed": null, "lit": null, "bin": null, "noname": null, "shelter": null, "name": "Angelina", "departures_board": null, "covered": "yes", "bench": "yes", "public_transport": null, "bus": null }, "geometry": { "type": "Point", "coordinates": [ -59.6368695, 13.1587554 ] } },
{ "type": "Feature", "properties": { "full_id": "n3883925841", "osm_id": "3883925841", "osm_type": "node", "highway": "bus_stop", "operator": null, "direction": null, "network": null, "description": null, "name:signed": null, "lit": null, "bin": null, "noname": null, "shelter": null, "name": "Aryil", "departures_board": null, "covered": "yes", "bench": "yes", "public_transport": null, "bus": null }, "geometry": { "type": "Point", "coordinates": [ -59.6373053, 13.1521753 ] } },
{ "type": "Feature", "properties": { "full_id": "n3883930853", "osm_id": "3883930853", "osm_type": "node", "highway": "bus_stop", "operator": null, "direction": null, "network": null, "description": null, "name:signed": null, "lit": null, "bin": null, "noname": null, "shelter": null, "name": "Alex", "departures_board": null, "covered": "yes", "bench": "yes", "public_transport": null, "bus": null }, "geometry": { "type": "Point", "coordinates": [ -59.6376856, 13.1505223 ] } },
{ "type": "Feature", "properties": { "full_id": "n3883948244", "osm_id": "3883948244", "osm_type": "node", "highway": "bus_stop", "operator": null, "direction": null, "network": null, "description": null, "name:signed": null, "lit": null, "bin": null, "noname": null, "shelter": null, "name": "Sonia", "departures_board": null, "covered": "yes", "bench": "yes", "public_transport": null, "bus": null }, "geometry": { "type": "Point", "coordinates": [ -59.6378874, 13.1443076 ] } },
{ "type": "Feature", "properties": { "full_id": "n3883969936", "osm_id": "3883969936", "osm_type": "node", "highway": "bus_stop", "operator": null, "direction": null, "network": null, "description": null, "name:signed": null, "lit": null, "bin": null, "noname": null, "shelter": null, "name": "Onisha", "departures_board": null, "covered": "yes", "bench": "yes", "public_transport": "platform", "bus": "yes" }, "geometry": { "type": "Point", "coordinates": [ -59.6349971, 13.1365742 ] } },
{ "type": "Feature", "properties": { "full_id": "n3883972522", "osm_id": "3883972522", "osm_type": "node", "highway": "bus_stop", "operator": null, "direction": null, "network": null, "description": null, "name:signed": null, "lit": null, "bin": null, "noname": null, "shelter": null, "name": "Pamela", "departures_board": null, "covered": "yes", "bench": "yes", "public_transport": null, "bus": null }, "geometry": { "type": "Point", "coordinates": [ -59.6366973, 13.1392566 ] } },
{ "type": "Feature", "properties": { "full_id": "n3884001440", "osm_id": "3884001440", "osm_type": "node", "highway": "bus_stop", "operator": null, "direction": null, "network": null, "description": null, "name:signed": null, "lit": null, "bin": null, "noname": null, "shelter": null, "name": "Tara", "departures_board": null, "covered": "yes", "bench": "yes", "public_transport": "platform", "bus": "yes" }, "geometry": { "type": "Point", "coordinates": [ -59.6329179, 13.132859 ] } },
{ "type": "Feature", "properties": { "full_id": "n3884808783", "osm_id": "3884808783", "osm_type": "node", "highway": "bus_stop", "operator": null, "direction": null, "network": null, "description": null, "name:signed": null, "lit": null, "bin": null, "noname": null, "shelter": null, "name": "Charie", "departures_board": null, "covered": "yes", "bench": "yes", "public_transport": "platform", "bus": "yes" }, "geometry": { "type": "Point", "coordinates": [ -59.6257907, 13.1256643 ] } },
{ "type": "Feature", "properties": { "full_id": "n3884819189", "osm_id": "3884819189", "osm_type": "node", "highway": "bus_stop", "operator": null, "direction": null, "network": null, "description": null, "name:signed": null, "lit": null, "bin": null, "noname": null, "shelter": null, "name": "Lovella", "departures_board": null, "covered": "yes", "bench": "yes", "public_transport": "platform", "bus": "yes" }, "geometry": { "type": "Point", "coordinates": [ -59.6277284, 13.1271046 ] } },
{ "type": "Feature", "properties": { "full_id": "n3885652549", "osm_id": "3885652549", "osm_type": "node", "highway": "bus_stop", "operator": null, "direction": null, "network": null, "description": null, "name:signed": null, "lit": null, "bin": null, "noname": null, "shelter": "yes", "name": "Aretha", "departures_board": null, "covered": "yes", "bench": "yes", "public_transport": "platform", "bus": "yes" }, "geometry": { "type": "Point", "coordinates": [ -59.6205086, 13.0972532 ] } },
{ "type": "Feature", "properties": { "full_id": "n3885657782", "osm_id": "3885657782", "osm_type": "node", "highway": "bus_stop", "operator": null, "direction": null, "network": null, "description": null, "name:signed": null, "lit": null, "bin": null, "noname": null, "shelter": null, "name": "Donna", "departures_board": null, "covered": "yes", "bench": "yes", "public_transport": null, "bus": null }, "geometry": { "type": "Point", "coordinates": [ -59.6245667, 13.1003555 ] } },
{ "type": "Feature", "properties": { "full_id": "n3886212458", "osm_id": "3886212458", "osm_type": "node", "highway": "bus_stop", "operator": null, "direction": null, "network": null, "description": null, "name:signed": null, "lit": null, "bin": null, "noname": null, "shelter": null, "name": "Sumaya", "departures_board": null, "covered": "yes", "bench": "yes", "public_transport": "platform", "bus": "yes" }, "geometry": { "type": "Point", "coordinates": [ -59.6169165, 13.1072917 ] } },
{ "type": "Feature", "properties": { "full_id": "n3886259041", "osm_id": "3886259041", "osm_type": "node", "highway": "bus_stop", "operator": null, "direction": null, "network": null, "description": null, "name:signed": null, "lit": null, "bin": null, "noname": null, "shelter": null, "name": "Shelly", "departures_board": null, "covered": "yes", "bench": "yes", "public_transport": "platform", "bus": "yes" }, "geometry": { "type": "Point", "coordinates": [ -59.6151581, 13.1120164 ] } },
{ "type": "Feature", "properties": { "full_id": "n3886349602", "osm_id": "3886349602", "osm_type": "node", "highway": "bus_stop", "operator": null, "direction": null, "network": null, "description": null, "name:signed": null, "lit": null, "bin": null, "noname": null, "shelter": null, "name": "Janice", "departures_board": null, "covered": "yes", "bench": "yes", "public_transport": "platform", "bus": "yes" }, "geometry": { "type": "Point", "coordinates": [ -59.6237191, 13.1236607 ] } },
{ "type": "Feature", "properties": { "full_id": "n3886972620", "osm_id": "3886972620", "osm_type": "node", "highway": "bus_stop", "operator": null, "direction": null, "network": null, "description": null, "name:signed": null, "lit": null, "bin": null, "noname": null, "shelter": null, "name": "Vicky", "departures_board": null, "covered": "yes", "bench": "yes", "public_transport": "platform", "bus": "yes" }, "geometry": { "type": "Point", "coordinates": [ -59.6170835, 13.1106175 ] } },
{ "type": "Feature", "properties": { "full_id": "n3886972621", "osm_id": "3886972621", "osm_type": "node", "highway": "bus_stop", "operator": null, "direction": null, "network": null, "description": null, "name:signed": null, "lit": null, "bin": null, "noname": null, "shelter": null, "name": null, "departures_board": null, "covered": "yes", "bench": "yes", "public_transport": "platform", "bus": "yes" }, "geometry": { "type": "Point", "coordinates": [ -59.6176343, 13.1099948 ] } },
{ "type": "Feature", "properties": { "full_id": "n3892246889", "osm_id": "3892246889", "osm_type": "node", "highway": "bus_stop", "operator": null, "direction": null, "network": null, "description": null, "name:signed": null, "lit": null, "bin": null, "noname": null, "shelter": null, "name": "Elisabeth", "departures_board": null, "covered": "yes", "bench": "yes", "public_transport": "platform", "bus": "yes" }, "geometry": { "type": "Point", "coordinates": [ -59.6095152, 13.1028063 ] } },
{ "type": "Feature", "properties": { "full_id": "n3892260032", "osm_id": "3892260032", "osm_type": "node", "highway": "bus_stop", "operator": null, "direction": null, "network": null, "description": null, "name:signed": null, "lit": null, "bin": null, "noname": null, "shelter": null, "name": "Tricia", "departures_board": null, "covered": "yes", "bench": "yes", "public_transport": "platform", "bus": "yes" }, "geometry": { "type": "Point", "coordinates": [ -59.6072373, 13.1031944 ] } },
{ "type": "Feature", "properties": { "full_id": "n3892277221", "osm_id": "3892277221", "osm_type": "node", "highway": "bus_stop", "operator": null, "direction": null, "network": null, "description": null, "name:signed": null, "lit": null, "bin": null, "noname": null, "shelter": null, "name": "Karen", "departures_board": null, "covered": "yes", "bench": "yes", "public_transport": "platform", "bus": "yes" }, "geometry": { "type": "Point", "coordinates": [ -59.6079097, 13.1085856 ] } },
{ "type": "Feature", "properties": { "full_id": "n3892437317", "osm_id": "3892437317", "osm_type": "node", "highway": "bus_stop", "operator": null, "direction": null, "network": null, "description": null, "name:signed": null, "lit": null, "bin": null, "noname": null, "shelter": null, "name": "Enna", "departures_board": null, "covered": "yes", "bench": "yes", "public_transport": "platform", "bus": "yes" }, "geometry": { "type": "Point", "coordinates": [ -59.6130521, 13.1056263 ] } },
{ "type": "Feature", "properties": { "full_id": "n3892577119", "osm_id": "3892577119", "osm_type": "node", "highway": "bus_stop", "operator": null, "direction": null, "network": null, "description": null, "name:signed": null, "lit": null, "bin": null, "noname": null, "shelter": "yes", "name": "Cherisse", "departures_board": null, "covered": "yes", "bench": "yes", "public_transport": "platform", "bus": "yes" }, "geometry": { "type": "Point", "coordinates": [ -59.6088137, 13.0923591 ] } },
{ "type": "Feature", "properties": { "full_id": "n3893561771", "osm_id": "3893561771", "osm_type": "node", "highway": "bus_stop", "operator": null, "direction": null, "network": null, "description": null, "name:signed": null, "lit": null, "bin": null, "noname": null, "shelter": "yes", "name": "Simone", "departures_board": null, "covered": "yes", "bench": "yes", "public_transport": "platform", "bus": "yes" }, "geometry": { "type": "Point", "coordinates": [ -59.6025886, 13.0927506 ] } },
{ "type": "Feature", "properties": { "full_id": "n3893599482", "osm_id": "3893599482", "osm_type": "node", "highway": "bus_stop", "operator": null, "direction": null, "network": null, "description": null, "name:signed": null, "lit": null, "bin": null, "noname": null, "shelter": "yes", "name": "Dianne", "departures_board": null, "covered": "yes", "bench": "yes", "public_transport": "platform", "bus": "yes" }, "geometry": { "type": "Point", "coordinates": [ -59.5957633, 13.093507 ] } },
{ "type": "Feature", "properties": { "full_id": "n3893611381", "osm_id": "3893611381", "osm_type": "node", "highway": "bus_stop", "operator": null, "direction": null, "network": null, "description": null, "name:signed": null, "lit": null, "bin": null, "noname": null, "shelter": null, "name": "Juliet", "departures_board": null, "covered": "yes", "bench": "yes", "public_transport": null, "bus": null }, "geometry": { "type": "Point", "coordinates": [ -59.592776, 13.0988978 ] } },
{ "type": "Feature", "properties": { "full_id": "n3893748620", "osm_id": "3893748620", "osm_type": "node", "highway": "bus_stop", "operator": null, "direction": null, "network": null, "description": null, "name:signed": null, "lit": null, "bin": null, "noname": null, "shelter": null, "name": "Denise", "departures_board": null, "covered": "yes", "bench": "yes", "public_transport": "platform", "bus": "yes" }, "geometry": { "type": "Point", "coordinates": [ -59.6065578, 13.1379951 ] } },
{ "type": "Feature", "properties": { "full_id": "n3893748621", "osm_id": "3893748621", "osm_type": "node", "highway": "bus_stop", "operator": null, "direction": null, "network": null, "description": null, "name:signed": null, "lit": null, "bin": null, "noname": null, "shelter": "yes", "name": null, "departures_board": null, "covered": "yes", "bench": "yes", "public_transport": "platform", "bus": "yes" }, "geometry": { "type": "Point", "coordinates": [ -59.6066482, 13.1383769 ] } },
{ "type": "Feature", "properties": { "full_id": "n3893894295", "osm_id": "3893894295", "osm_type": "node", "highway": "bus_stop", "operator": null, "direction": null, "network": null, "description": null, "name:signed": null, "lit": null, "bin": null, "noname": null, "shelter": "yes", "name": "Carolyn", "departures_board": "no", "covered": "yes", "bench": "yes", "public_transport": "platform", "bus": "yes" }, "geometry": { "type": "Point", "coordinates": [ -59.5800157, 13.1007631 ] } },
{ "type": "Feature", "properties": { "full_id": "n3893894297", "osm_id": "3893894297", "osm_type": "node", "highway": "bus_stop", "operator": null, "direction": null, "network": null, "description": null, "name:signed": null, "lit": null, "bin": null, "noname": null, "shelter": "yes", "name": "Kamaree", "departures_board": "no", "covered": "yes", "bench": "yes", "public_transport": "platform", "bus": "yes" }, "geometry": { "type": "Point", "coordinates": [ -59.5789013, 13.0962261 ] } },
{ "type": "Feature", "properties": { "full_id": "n3893894308", "osm_id": "3893894308", "osm_type": "node", "highway": "bus_stop", "operator": null, "direction": null, "network": null, "description": null, "name:signed": null, "lit": null, "bin": null, "noname": null, "shelter": "yes", "name": null, "departures_board": "no", "covered": "yes", "bench": "yes", "public_transport": "platform", "bus": "yes" }, "geometry": { "type": "Point", "coordinates": [ -59.576993, 13.0876285 ] } },
{ "type": "Feature", "properties": { "full_id": "n3893994608", "osm_id": "3893994608", "osm_type": "node", "highway": "bus_stop", "operator": null, "direction": null, "network": null, "description": null, "name:signed": null, "lit": null, "bin": null, "noname": null, "shelter": null, "name": "Gwendolyn", "departures_board": null, "covered": "yes", "bench": "yes", "public_transport": "platform", "bus": "yes" }, "geometry": { "type": "Point", "coordinates": [ -59.5805354, 13.0786227 ] } },
{ "type": "Feature", "properties": { "full_id": "n3894097034", "osm_id": "3894097034", "osm_type": "node", "highway": "bus_stop", "operator": null, "direction": null, "network": null, "description": null, "name:signed": null, "lit": null, "bin": null, "noname": null, "shelter": null, "name": "Elizabeth", "departures_board": null, "covered": "yes", "bench": "yes", "public_transport": "platform", "bus": "yes" }, "geometry": { "type": "Point", "coordinates": [ -59.6012977, 13.0885844 ] } },
{ "type": "Feature", "properties": { "full_id": "n3894097920", "osm_id": "3894097920", "osm_type": "node", "highway": "bus_stop", "operator": null, "direction": null, "network": null, "description": null, "name:signed": null, "lit": null, "bin": null, "noname": null, "shelter": null, "name": "Rachel", "departures_board": null, "covered": "yes", "bench": "yes", "public_transport": "platform", "bus": "yes" }, "geometry": { "type": "Point", "coordinates": [ -59.6014064, 13.0879777 ] } },
{ "type": "Feature", "properties": { "full_id": "n3894101370", "osm_id": "3894101370", "osm_type": "node", "highway": "bus_stop", "operator": null, "direction": null, "network": null, "description": null, "name:signed": null, "lit": null, "bin": null, "noname": null, "shelter": null, "name": "Mandy", "departures_board": null, "covered": "yes", "bench": "yes", "public_transport": "platform", "bus": "yes" }, "geometry": { "type": "Point", "coordinates": [ -59.6008269, 13.0866062 ] } },
{ "type": "Feature", "properties": { "full_id": "n3894274893", "osm_id": "3894274893", "osm_type": "node", "highway": "bus_stop", "operator": null, "direction": null, "network": null, "description": null, "name:signed": null, "lit": null, "bin": null, "noname": null, "shelter": null, "name": null, "departures_board": null, "covered": "yes", "bench": "yes", "public_transport": "platform", "bus": "yes" }, "geometry": { "type": "Point", "coordinates": [ -59.601514, 13.0912689 ] } },
{ "type": "Feature", "properties": { "full_id": "n3894337173", "osm_id": "3894337173", "osm_type": "node", "highway": "bus_stop", "operator": null, "direction": null, "network": null, "description": null, "name:signed": null, "lit": null, "bin": null, "noname": null, "shelter": "yes", "name": "Sylvia", "departures_board": "no", "covered": "yes", "bench": "yes", "public_transport": "platform", "bus": "yes" }, "geometry": { "type": "Point", "coordinates": [ -59.5623503, 13.0825516 ] } },
{ "type": "Feature", "properties": { "full_id": "n3894341292", "osm_id": "3894341292", "osm_type": "node", "highway": "bus_stop", "operator": null, "direction": null, "network": null, "description": null, "name:signed": null, "lit": null, "bin": null, "noname": null, "shelter": "yes", "name": "Kennilee", "departures_board": "no", "covered": "yes", "bench": "yes", "public_transport": "platform", "bus": "yes" }, "geometry": { "type": "Point", "coordinates": [ -59.566166, 13.0824649 ] } },
{ "type": "Feature", "properties": { "full_id": "n3895370912", "osm_id": "3895370912", "osm_type": "node", "highway": "bus_stop", "operator": null, "direction": null, "network": null, "description": null, "name:signed": null, "lit": null, "bin": null, "noname": null, "shelter": "yes", "name": "Valerie", "departures_board": "no", "covered": "yes", "bench": "yes", "public_transport": "platform", "bus": "yes" }, "geometry": { "type": "Point", "coordinates": [ -59.538849, 13.0620818 ] } },
{ "type": "Feature", "properties": { "full_id": "n3895854457", "osm_id": "3895854457", "osm_type": "node", "highway": "bus_stop", "operator": null, "direction": null, "network": null, "description": null, "name:signed": "no", "lit": "no", "bin": "no", "noname": null, "shelter": null, "name": null, "departures_board": null, "covered": "yes", "bench": "yes", "public_transport": null, "bus": null }, "geometry": { "type": "Point", "coordinates": [ -59.5019719, 13.0863675 ] } },
{ "type": "Feature", "properties": { "full_id": "n4058352979", "osm_id": "4058352979", "osm_type": "node", "highway": "bus_stop", "operator": null, "direction": null, "network": null, "description": null, "name:signed": null, "lit": null, "bin": null, "noname": null, "shelter": "yes", "name": null, "departures_board": null, "covered": "no", "bench": null, "public_transport": "platform", "bus": "yes" }, "geometry": { "type": "Point", "coordinates": [ -59.6068959, 13.098417 ] } },
{ "type": "Feature", "properties": { "full_id": "n4070069114", "osm_id": "4070069114", "osm_type": "node", "highway": "bus_stop", "operator": null, "direction": null, "network": null, "description": null, "name:signed": null, "lit": null, "bin": null, "noname": null, "shelter": null, "name": null, "departures_board": null, "covered": null, "bench": null, "public_transport": "platform", "bus": "yes" }, "geometry": { "type": "Point", "coordinates": [ -59.6008647, 13.099107 ] } },
{ "type": "Feature", "properties": { "full_id": "n4070069115", "osm_id": "4070069115", "osm_type": "node", "highway": "bus_stop", "operator": null, "direction": null, "network": null, "description": null, "name:signed": null, "lit": null, "bin": null, "noname": null, "shelter": null, "name": null, "departures_board": null, "covered": null, "bench": null, "public_transport": "platform", "bus": "yes" }, "geometry": { "type": "Point", "coordinates": [ -59.6052391, 13.0991653 ] } },
{ "type": "Feature", "properties": { "full_id": "n4070069117", "osm_id": "4070069117", "osm_type": "node", "highway": "bus_stop", "operator": null, "direction": null, "network": null, "description": null, "name:signed": null, "lit": null, "bin": null, "noname": null, "shelter": "yes", "name": null, "departures_board": null, "covered": null, "bench": null, "public_transport": "platform", "bus": "yes" }, "geometry": { "type": "Point", "coordinates": [ -59.6009063, 13.0996308 ] } },
{ "type": "Feature", "properties": { "full_id": "n4070069119", "osm_id": "4070069119", "osm_type": "node", "highway": "bus_stop", "operator": null, "direction": null, "network": null, "description": null, "name:signed": null, "lit": null, "bin": null, "noname": null, "shelter": null, "name": null, "departures_board": null, "covered": null, "bench": null, "public_transport": "platform", "bus": "yes" }, "geometry": { "type": "Point", "coordinates": [ -59.6044992, 13.0997199 ] } },
{ "type": "Feature", "properties": { "full_id": "n4321952183", "osm_id": "4321952183", "osm_type": "node", "highway": "bus_stop", "operator": null, "direction": null, "network": null, "description": null, "name:signed": null, "lit": null, "bin": null, "noname": null, "shelter": null, "name": null, "departures_board": null, "covered": null, "bench": null, "public_transport": "platform", "bus": "yes" }, "geometry": { "type": "Point", "coordinates": [ -59.6177255, 13.1028939 ] } },
{ "type": "Feature", "properties": { "full_id": "n6813478866", "osm_id": "6813478866", "osm_type": "node", "highway": "bus_stop", "operator": null, "direction": null, "network": null, "description": null, "name:signed": null, "lit": null, "bin": null, "noname": null, "shelter": null, "name": null, "departures_board": null, "covered": null, "bench": null, "public_transport": "platform", "bus": "yes" }, "geometry": { "type": "Point", "coordinates": [ -59.6330416, 13.1328158 ] } },
{ "type": "Feature", "properties": { "full_id": "n6835699407", "osm_id": "6835699407", "osm_type": "node", "highway": "bus_stop", "operator": null, "direction": null, "network": null, "description": null, "name:signed": null, "lit": null, "bin": null, "noname": null, "shelter": "yes", "name": null, "departures_board": null, "covered": null, "bench": null, "public_transport": "platform", "bus": "yes" }, "geometry": { "type": "Point", "coordinates": [ -59.6078053, 13.0819201 ] } },
{ "type": "Feature", "properties": { "full_id": "n6835699408", "osm_id": "6835699408", "osm_type": "node", "highway": "bus_stop", "operator": null, "direction": null, "network": null, "description": "Route 13", "name:signed": null, "lit": null, "bin": null, "noname": null, "shelter": "yes", "name": "Bay Street E&Y", "departures_board": null, "covered": null, "bench": null, "public_transport": "platform", "bus": "yes" }, "geometry": { "type": "Point", "coordinates": [ -59.6076434, 13.0817773 ] } },
{ "type": "Feature", "properties": { "full_id": "n6848485484", "osm_id": "6848485484", "osm_type": "node", "highway": "bus_stop", "operator": null, "direction": null, "network": null, "description": null, "name:signed": null, "lit": null, "bin": null, "noname": null, "shelter": null, "name": null, "departures_board": null, "covered": null, "bench": null, "public_transport": "platform", "bus": "yes" }, "geometry": { "type": "Point", "coordinates": [ -59.6129545, 13.1530006 ] } },
{ "type": "Feature", "properties": { "full_id": "n6848518685", "osm_id": "6848518685", "osm_type": "node", "highway": "bus_stop", "operator": null, "direction": null, "network": null, "description": null, "name:signed": null, "lit": null, "bin": null, "noname": null, "shelter": null, "name": null, "departures_board": null, "covered": null, "bench": null, "public_transport": "platform", "bus": "yes" }, "geometry": { "type": "Point", "coordinates": [ -59.6132059, 13.1547854 ] } },
{ "type": "Feature", "properties": { "full_id": "n6848518686", "osm_id": "6848518686", "osm_type": "node", "highway": "bus_stop", "operator": null, "direction": null, "network": null, "description": null, "name:signed": null, "lit": null, "bin": null, "noname": null, "shelter": null, "name": null, "departures_board": null, "covered": null, "bench": null, "public_transport": "platform", "bus": "yes" }, "geometry": { "type": "Point", "coordinates": [ -59.6141522, 13.1572658 ] } },
{ "type": "Feature", "properties": { "full_id": "n6848518687", "osm_id": "6848518687", "osm_type": "node", "highway": "bus_stop", "operator": null, "direction": null, "network": null, "description": null, "name:signed": null, "lit": null, "bin": null, "noname": null, "shelter": null, "name": null, "departures_board": null, "covered": null, "bench": null, "public_transport": "platform", "bus": "yes" }, "geometry": { "type": "Point", "coordinates": [ -59.6140557, 13.1575279 ] } },
{ "type": "Feature", "properties": { "full_id": "n6848518707", "osm_id": "6848518707", "osm_type": "node", "highway": "bus_stop", "operator": null, "direction": null, "network": null, "description": null, "name:signed": null, "lit": null, "bin": null, "noname": null, "shelter": null, "name": null, "departures_board": null, "covered": null, "bench": null, "public_transport": "platform", "bus": "yes" }, "geometry": { "type": "Point", "coordinates": [ -59.6283195, 13.1529329 ] } },
{ "type": "Feature", "properties": { "full_id": "n6848518708", "osm_id": "6848518708", "osm_type": "node", "highway": "bus_stop", "operator": null, "direction": null, "network": null, "description": null, "name:signed": null, "lit": null, "bin": null, "noname": null, "shelter": null, "name": null, "departures_board": null, "covered": null, "bench": null, "public_transport": "platform", "bus": "yes" }, "geometry": { "type": "Point", "coordinates": [ -59.627899, 13.1275637 ] } },
{ "type": "Feature", "properties": { "full_id": "n6848518709", "osm_id": "6848518709", "osm_type": "node", "highway": "bus_stop", "operator": null, "direction": null, "network": null, "description": null, "name:signed": null, "lit": null, "bin": null, "noname": null, "shelter": null, "name": null, "departures_board": null, "covered": null, "bench": null, "public_transport": "platform", "bus": "yes" }, "geometry": { "type": "Point", "coordinates": [ -59.6137898, 13.1032368 ] } },
{ "type": "Feature", "properties": { "full_id": "n6939733339", "osm_id": "6939733339", "osm_type": "node", "highway": "bus_stop", "operator": null, "direction": null, "network": null, "description": null, "name:signed": null, "lit": null, "bin": null, "noname": null, "shelter": null, "name": null, "departures_board": null, "covered": null, "bench": null, "public_transport": "platform", "bus": "yes" }, "geometry": { "type": "Point", "coordinates": [ -59.5627613, 13.135118 ] } },
{ "type": "Feature", "properties": { "full_id": "n6939733340", "osm_id": "6939733340", "osm_type": "node", "highway": "bus_stop", "operator": null, "direction": null, "network": null, "description": null, "name:signed": null, "lit": null, "bin": null, "noname": null, "shelter": null, "name": null, "departures_board": null, "covered": null, "bench": null, "public_transport": "platform", "bus": "yes" }, "geometry": { "type": "Point", "coordinates": [ -59.56195, 13.1315202 ] } },
{ "type": "Feature", "properties": { "full_id": "n6942665791", "osm_id": "6942665791", "osm_type": "node", "highway": "bus_stop", "operator": null, "direction": null, "network": null, "description": null, "name:signed": null, "lit": null, "bin": null, "noname": null, "shelter": null, "name": null, "departures_board": null, "covered": null, "bench": null, "public_transport": "platform", "bus": "yes" }, "geometry": { "type": "Point", "coordinates": [ -59.6051998, 13.1432631 ] } },
{ "type": "Feature", "properties": { "full_id": "n6942665813", "osm_id": "6942665813", "osm_type": "node", "highway": "bus_stop", "operator": null, "direction": null, "network": null, "description": null, "name:signed": null, "lit": null, "bin": null, "noname": null, "shelter": null, "name": null, "departures_board": null, "covered": null, "bench": null, "public_transport": "platform", "bus": "yes" }, "geometry": { "type": "Point", "coordinates": [ -59.6152749, 13.1137477 ] } },
{ "type": "Feature", "properties": { "full_id": "n6942665814", "osm_id": "6942665814", "osm_type": "node", "highway": "bus_stop", "operator": null, "direction": null, "network": null, "description": null, "name:signed": null, "lit": null, "bin": null, "noname": null, "shelter": null, "name": null, "departures_board": null, "covered": null, "bench": null, "public_transport": "platform", "bus": "yes" }, "geometry": { "type": "Point", "coordinates": [ -59.617196, 13.1167064 ] } },
{ "type": "Feature", "properties": { "full_id": "n6942665815", "osm_id": "6942665815", "osm_type": "node", "highway": "bus_stop", "operator": null, "direction": null, "network": null, "description": null, "name:signed": null, "lit": null, "bin": null, "noname": null, "shelter": null, "name": null, "departures_board": null, "covered": null, "bench": null, "public_transport": "platform", "bus": "yes" }, "geometry": { "type": "Point", "coordinates": [ -59.6171174, 13.1163478 ] } },
{ "type": "Feature", "properties": { "full_id": "n6942665816", "osm_id": "6942665816", "osm_type": "node", "highway": "bus_stop", "operator": null, "direction": null, "network": null, "description": null, "name:signed": null, "lit": null, "bin": null, "noname": null, "shelter": null, "name": null, "departures_board": null, "covered": null, "bench": null, "public_transport": "platform", "bus": "yes" }, "geometry": { "type": "Point", "coordinates": [ -59.6213283, 13.1211893 ] } },
{ "type": "Feature", "properties": { "full_id": "n6988523985", "osm_id": "6988523985", "osm_type": "node", "highway": "bus_stop", "operator": null, "direction": null, "network": null, "description": null, "name:signed": null, "lit": null, "bin": null, "noname": null, "shelter": null, "name": null, "departures_board": null, "covered": null, "bench": null, "public_transport": null, "bus": null }, "geometry": { "type": "Point", "coordinates": [ -59.6415559, 13.2236174 ] } },
{ "type": "Feature", "properties": { "full_id": "n7006306124", "osm_id": "7006306124", "osm_type": "node", "highway": "bus_stop", "operator": null, "direction": null, "network": null, "description": null, "name:signed": null, "lit": null, "bin": null, "noname": null, "shelter": null, "name": null, "departures_board": null, "covered": null, "bench": null, "public_transport": null, "bus": null }, "geometry": { "type": "Point", "coordinates": [ -59.6380588, 13.1467625 ] } },
{ "type": "Feature", "properties": { "full_id": "n7006306125", "osm_id": "7006306125", "osm_type": "node", "highway": "bus_stop", "operator": null, "direction": null, "network": null, "description": null, "name:signed": null, "lit": null, "bin": null, "noname": null, "shelter": null, "name": null, "departures_board": null, "covered": null, "bench": null, "public_transport": "platform", "bus": "yes" }, "geometry": { "type": "Point", "coordinates": [ -59.6294693, 13.1286443 ] } },
{ "type": "Feature", "properties": { "full_id": "n7006306126", "osm_id": "7006306126", "osm_type": "node", "highway": "bus_stop", "operator": null, "direction": null, "network": null, "description": null, "name:signed": null, "lit": null, "bin": null, "noname": null, "shelter": null, "name": "Akeilia", "departures_board": null, "covered": null, "bench": null, "public_transport": "platform", "bus": "yes" }, "geometry": { "type": "Point", "coordinates": [ -59.6171825, 13.1167789 ] } },
{ "type": "Feature", "properties": { "full_id": "n7006306127", "osm_id": "7006306127", "osm_type": "node", "highway": "bus_stop", "operator": null, "direction": null, "network": null, "description": null, "name:signed": null, "lit": null, "bin": null, "noname": null, "shelter": null, "name": "Alison", "departures_board": null, "covered": null, "bench": null, "public_transport": "platform", "bus": "yes" }, "geometry": { "type": "Point", "coordinates": [ -59.6172537, 13.116645 ] } },
{ "type": "Feature", "properties": { "full_id": "n7006306128", "osm_id": "7006306128", "osm_type": "node", "highway": "bus_stop", "operator": null, "direction": null, "network": null, "description": null, "name:signed": null, "lit": null, "bin": null, "noname": null, "shelter": "yes", "name": null, "departures_board": "no", "covered": null, "bench": null, "public_transport": "platform", "bus": "yes" }, "geometry": { "type": "Point", "coordinates": [ -59.5882984, 13.0740484 ] } },
{ "type": "Feature", "properties": { "full_id": "n7006306129", "osm_id": "7006306129", "osm_type": "node", "highway": "bus_stop", "operator": null, "direction": null, "network": null, "description": null, "name:signed": null, "lit": null, "bin": null, "noname": null, "shelter": "yes", "name": null, "departures_board": "no", "covered": null, "bench": "yes", "public_transport": "platform", "bus": "yes" }, "geometry": { "type": "Point", "coordinates": [ -59.5460617, 13.0646605 ] } },
{ "type": "Feature", "properties": { "full_id": "n7006306130", "osm_id": "7006306130", "osm_type": "node", "highway": "bus_stop", "operator": null, "direction": null, "network": null, "description": null, "name:signed": null, "lit": null, "bin": null, "noname": null, "shelter": "yes", "name": null, "departures_board": null, "covered": null, "bench": "yes", "public_transport": null, "bus": null }, "geometry": { "type": "Point", "coordinates": [ -59.523095, 13.075277 ] } },
{ "type": "Feature", "properties": { "full_id": "n7006319390", "osm_id": "7006319390", "osm_type": "node", "highway": "bus_stop", "operator": null, "direction": null, "network": null, "description": null, "name:signed": null, "lit": null, "bin": null, "noname": null, "shelter": null, "name": null, "departures_board": null, "covered": null, "bench": null, "public_transport": "platform", "bus": "yes" }, "geometry": { "type": "Point", "coordinates": [ -59.5991252, 13.0745963 ] } },
{ "type": "Feature", "properties": { "full_id": "n7006323291", "osm_id": "7006323291", "osm_type": "node", "highway": "bus_stop", "operator": null, "direction": null, "network": null, "description": null, "name:signed": null, "lit": null, "bin": null, "noname": null, "shelter": null, "name": "Cressida", "departures_board": null, "covered": null, "bench": null, "public_transport": null, "bus": null }, "geometry": { "type": "Point", "coordinates": [ -59.6381536, 13.1788495 ] } },
{ "type": "Feature", "properties": { "full_id": "n7006323292", "osm_id": "7006323292", "osm_type": "node", "highway": "bus_stop", "operator": null, "direction": null, "network": null, "description": null, "name:signed": null, "lit": null, "bin": null, "noname": null, "shelter": null, "name": null, "departures_board": null, "covered": null, "bench": null, "public_transport": "platform", "bus": "yes" }, "geometry": { "type": "Point", "coordinates": [ -59.612188, 13.1116022 ] } },
{ "type": "Feature", "properties": { "full_id": "n7006323293", "osm_id": "7006323293", "osm_type": "node", "highway": "bus_stop", "operator": null, "direction": null, "network": null, "description": null, "name:signed": null, "lit": null, "bin": null, "noname": null, "shelter": null, "name": null, "departures_board": null, "covered": null, "bench": null, "public_transport": "platform", "bus": "yes" }, "geometry": { "type": "Point", "coordinates": [ -59.6058952, 13.1024069 ] } },
{ "type": "Feature", "properties": { "full_id": "n7006323294", "osm_id": "7006323294", "osm_type": "node", "highway": "bus_stop", "operator": null, "direction": null, "network": null, "description": null, "name:signed": null, "lit": null, "bin": null, "noname": null, "shelter": null, "name": null, "departures_board": null, "covered": null, "bench": null, "public_transport": "platform", "bus": "yes" }, "geometry": { "type": "Point", "coordinates": [ -59.6027463, 13.1039254 ] } },
{ "type": "Feature", "properties": { "full_id": "n7006323295", "osm_id": "7006323295", "osm_type": "node", "highway": "bus_stop", "operator": null, "direction": null, "network": null, "description": null, "name:signed": null, "lit": null, "bin": null, "noname": null, "shelter": "yes", "name": null, "departures_board": null, "covered": null, "bench": null, "public_transport": "platform", "bus": "yes" }, "geometry": { "type": "Point", "coordinates": [ -59.6013742, 13.0966641 ] } },
{ "type": "Feature", "properties": { "full_id": "n7006323296", "osm_id": "7006323296", "osm_type": "node", "highway": "bus_stop", "operator": null, "direction": null, "network": null, "description": null, "name:signed": null, "lit": null, "bin": null, "noname": null, "shelter": null, "name": "Jenny", "departures_board": null, "covered": null, "bench": null, "public_transport": "platform", "bus": "yes" }, "geometry": { "type": "Point", "coordinates": [ -59.6014482, 13.0912694 ] } },
{ "type": "Feature", "properties": { "full_id": "n7006323297", "osm_id": "7006323297", "osm_type": "node", "highway": "bus_stop", "operator": null, "direction": null, "network": null, "description": null, "name:signed": null, "lit": null, "bin": null, "noname": null, "shelter": null, "name": null, "departures_board": null, "covered": null, "bench": null, "public_transport": "platform", "bus": "yes" }, "geometry": { "type": "Point", "coordinates": [ -59.6028208, 13.0768438 ] } },
{ "type": "Feature", "properties": { "full_id": "n7006323298", "osm_id": "7006323298", "osm_type": "node", "highway": "bus_stop", "operator": null, "direction": null, "network": null, "description": null, "name:signed": null, "lit": null, "bin": null, "noname": null, "shelter": "yes", "name": "Maxine", "departures_board": "no", "covered": null, "bench": null, "public_transport": "platform", "bus": "yes" }, "geometry": { "type": "Point", "coordinates": [ -59.570541, 13.0694848 ] } },
{ "type": "Feature", "properties": { "full_id": "n7006323299", "osm_id": "7006323299", "osm_type": "node", "highway": "bus_stop", "operator": null, "direction": null, "network": null, "description": null, "name:signed": null, "lit": "no", "bin": "no", "noname": null, "shelter": "yes", "name": "Deborah", "departures_board": null, "covered": null, "bench": "yes", "public_transport": null, "bus": null }, "geometry": { "type": "Point", "coordinates": [ -59.4992861, 13.0806753 ] } },
{ "type": "Feature", "properties": { "full_id": "n7006342686", "osm_id": "7006342686", "osm_type": "node", "highway": "bus_stop", "operator": null, "direction": null, "network": null, "description": null, "name:signed": null, "lit": null, "bin": null, "noname": null, "shelter": null, "name": null, "departures_board": null, "covered": null, "bench": null, "public_transport": "platform", "bus": "yes" }, "geometry": { "type": "Point", "coordinates": [ -59.6210622, 13.1208335 ] } },
{ "type": "Feature", "properties": { "full_id": "n7006342687", "osm_id": "7006342687", "osm_type": "node", "highway": "bus_stop", "operator": null, "direction": null, "network": null, "description": null, "name:signed": null, "lit": null, "bin": null, "noname": null, "shelter": null, "name": null, "departures_board": null, "covered": null, "bench": null, "public_transport": null, "bus": null }, "geometry": { "type": "Point", "coordinates": [ -59.4951309, 13.0806343 ] } },
{ "type": "Feature", "properties": { "full_id": "n7106037341", "osm_id": "7106037341", "osm_type": "node", "highway": "bus_stop", "operator": null, "direction": null, "network": null, "description": null, "name:signed": null, "lit": null, "bin": null, "noname": null, "shelter": null, "name": null, "departures_board": "no", "covered": null, "bench": null, "public_transport": "platform", "bus": "yes" }, "geometry": { "type": "Point", "coordinates": [ -59.5526584, 13.0661533 ] } },
{ "type": "Feature", "properties": { "full_id": "n7107862340", "osm_id": "7107862340", "osm_type": "node", "highway": "bus_stop", "operator": null, "direction": null, "network": null, "description": null, "name:signed": null, "lit": null, "bin": null, "noname": null, "shelter": "yes", "name": null, "departures_board": "no", "covered": null, "bench": null, "public_transport": "platform", "bus": "yes" }, "geometry": { "type": "Point", "coordinates": [ -59.5528584, 13.0663532 ] } },
{ "type": "Feature", "properties": { "full_id": "n7107878071", "osm_id": "7107878071", "osm_type": "node", "highway": "bus_stop", "operator": null, "direction": null, "network": null, "description": null, "name:signed": null, "lit": null, "bin": null, "noname": null, "shelter": "yes", "name": "Carolyn", "departures_board": "no", "covered": null, "bench": null, "public_transport": "platform", "bus": "yes" }, "geometry": { "type": "Point", "coordinates": [ -59.5848021, 13.0909639 ] } },
{ "type": "Feature", "properties": { "full_id": "n8203872024", "osm_id": "8203872024", "osm_type": "node", "highway": "bus_stop", "operator": null, "direction": null, "network": null, "description": null, "name:signed": null, "lit": null, "bin": null, "noname": null, "shelter": "yes", "name": null, "departures_board": "no", "covered": null, "bench": "yes", "public_transport": "platform", "bus": "yes" }, "geometry": { "type": "Point", "coordinates": [ -59.635408, 13.1857009 ] } },
{ "type": "Feature", "properties": { "full_id": "n8203872025", "osm_id": "8203872025", "osm_type": "node", "highway": "bus_stop", "operator": null, "direction": null, "network": null, "description": null, "name:signed": null, "lit": null, "bin": null, "noname": null, "shelter": "no", "name": null, "departures_board": null, "covered": null, "bench": null, "public_transport": "platform", "bus": "yes" }, "geometry": { "type": "Point", "coordinates": [ -59.6286498, 13.1846964 ] } },
{ "type": "Feature", "properties": { "full_id": "n9163797164", "osm_id": "9163797164", "osm_type": "node", "highway": "bus_stop", "operator": null, "direction": null, "network": null, "description": null, "name:signed": null, "lit": null, "bin": null, "noname": null, "shelter": null, "name": null, "departures_board": null, "covered": null, "bench": null, "public_transport": "platform", "bus": "yes" }, "geometry": { "type": "Point", "coordinates": [ -59.4683851, 13.1060109 ] } },
{ "type": "Feature", "properties": { "full_id": "n9163797165", "osm_id": "9163797165", "osm_type": "node", "highway": "bus_stop", "operator": null, "direction": null, "network": null, "description": null, "name:signed": null, "lit": null, "bin": null, "noname": null, "shelter": null, "name": null, "departures_board": null, "covered": null, "bench": null, "public_transport": "platform", "bus": "yes" }, "geometry": { "type": "Point", "coordinates": [ -59.4682375, 13.1053699 ] } },
{ "type": "Feature", "properties": { "full_id": "n9163797166", "osm_id": "9163797166", "osm_type": "node", "highway": "bus_stop", "operator": null, "direction": null, "network": null, "description": null, "name:signed": null, "lit": null, "bin": null, "noname": null, "shelter": null, "name": null, "departures_board": null, "covered": null, "bench": null, "public_transport": "platform", "bus": "yes" }, "geometry": { "type": "Point", "coordinates": [ -59.4703726, 13.1037234 ] } },
{ "type": "Feature", "properties": { "full_id": "n9163797167", "osm_id": "9163797167", "osm_type": "node", "highway": "bus_stop", "operator": null, "direction": null, "network": null, "description": null, "name:signed": null, "lit": null, "bin": null, "noname": null, "shelter": null, "name": null, "departures_board": null, "covered": null, "bench": null, "public_transport": "platform", "bus": "yes" }, "geometry": { "type": "Point", "coordinates": [ -59.4699373, 13.1040725 ] } },
{ "type": "Feature", "properties": { "full_id": "n9163797168", "osm_id": "9163797168", "osm_type": "node", "highway": "bus_stop", "operator": null, "direction": null, "network": null, "description": null, "name:signed": null, "lit": null, "bin": null, "noname": null, "shelter": null, "name": null, "departures_board": null, "covered": null, "bench": null, "public_transport": "platform", "bus": "yes" }, "geometry": { "type": "Point", "coordinates": [ -59.4725814, 13.1034908 ] } },
{ "type": "Feature", "properties": { "full_id": "n9163797169", "osm_id": "9163797169", "osm_type": "node", "highway": "bus_stop", "operator": null, "direction": null, "network": null, "description": null, "name:signed": null, "lit": null, "bin": null, "noname": null, "shelter": null, "name": null, "departures_board": null, "covered": null, "bench": null, "public_transport": "platform", "bus": "yes" }, "geometry": { "type": "Point", "coordinates": [ -59.4655977, 13.1036242 ] } },
{ "type": "Feature", "properties": { "full_id": "n9163797170", "osm_id": "9163797170", "osm_type": "node", "highway": "bus_stop", "operator": null, "direction": null, "network": null, "description": null, "name:signed": null, "lit": null, "bin": null, "noname": null, "shelter": null, "name": null, "departures_board": null, "covered": null, "bench": null, "public_transport": "platform", "bus": "yes" }, "geometry": { "type": "Point", "coordinates": [ -59.4656684, 13.1040723 ] } },
{ "type": "Feature", "properties": { "full_id": "n9165145210", "osm_id": "9165145210", "osm_type": "node", "highway": "bus_stop", "operator": null, "direction": null, "network": null, "description": null, "name:signed": null, "lit": null, "bin": null, "noname": null, "shelter": null, "name": null, "departures_board": null, "covered": null, "bench": null, "public_transport": "platform", "bus": "yes" }, "geometry": { "type": "Point", "coordinates": [ -59.4756145, 13.1157473 ] } },
{ "type": "Feature", "properties": { "full_id": "n9269475246", "osm_id": "9269475246", "osm_type": "node", "highway": "bus_stop", "operator": null, "direction": null, "network": null, "description": null, "name:signed": null, "lit": null, "bin": null, "noname": null, "shelter": "yes", "name": "Fatima", "departures_board": null, "covered": null, "bench": null, "public_transport": "platform", "bus": "yes" }, "geometry": { "type": "Point", "coordinates": [ -59.6144299, 13.1150132 ] } },
{ "type": "Feature", "properties": { "full_id": "n9275977894", "osm_id": "9275977894", "osm_type": "node", "highway": "bus_stop", "operator": null, "direction": null, "network": null, "description": null, "name:signed": null, "lit": null, "bin": null, "noname": null, "shelter": "no", "name": null, "departures_board": null, "covered": null, "bench": null, "public_transport": "platform", "bus": "yes" }, "geometry": { "type": "Point", "coordinates": [ -59.6160151, 13.1094805 ] } },
{ "type": "Feature", "properties": { "full_id": "n9275977895", "osm_id": "9275977895", "osm_type": "node", "highway": "bus_stop", "operator": null, "direction": null, "network": null, "description": null, "name:signed": null, "lit": null, "bin": null, "noname": null, "shelter": null, "name": null, "departures_board": null, "covered": null, "bench": null, "public_transport": "platform", "bus": "yes" }, "geometry": { "type": "Point", "coordinates": [ -59.6169611, 13.0998326 ] } },
{ "type": "Feature", "properties": { "full_id": "n9276027627", "osm_id": "9276027627", "osm_type": "node", "highway": "bus_stop", "operator": null, "direction": null, "network": "Oistins", "description": null, "name:signed": null, "lit": null, "bin": null, "noname": null, "shelter": null, "name": null, "departures_board": null, "covered": null, "bench": null, "public_transport": "platform", "bus": "yes" }, "geometry": { "type": "Point", "coordinates": [ -59.6138476, 13.1130119 ] } },
{ "type": "Feature", "properties": { "full_id": "n9276058732", "osm_id": "9276058732", "osm_type": "node", "highway": "bus_stop", "operator": null, "direction": null, "network": null, "description": null, "name:signed": null, "lit": null, "bin": null, "noname": null, "shelter": null, "name": null, "departures_board": null, "covered": null, "bench": null, "public_transport": "platform", "bus": "yes" }, "geometry": { "type": "Point", "coordinates": [ -59.6140725, 13.1172225 ] } },
{ "type": "Feature", "properties": { "full_id": "n9276058733", "osm_id": "9276058733", "osm_type": "node", "highway": "bus_stop", "operator": null, "direction": null, "network": null, "description": null, "name:signed": null, "lit": null, "bin": null, "noname": null, "shelter": null, "name": null, "departures_board": null, "covered": null, "bench": null, "public_transport": "platform", "bus": "yes" }, "geometry": { "type": "Point", "coordinates": [ -59.6127022, 13.119319 ] } },
{ "type": "Feature", "properties": { "full_id": "n9276058734", "osm_id": "9276058734", "osm_type": "node", "highway": "bus_stop", "operator": null, "direction": null, "network": null, "description": null, "name:signed": null, "lit": null, "bin": null, "noname": null, "shelter": null, "name": null, "departures_board": null, "covered": null, "bench": null, "public_transport": "platform", "bus": "yes" }, "geometry": { "type": "Point", "coordinates": [ -59.6101411, 13.1215264 ] } },
{ "type": "Feature", "properties": { "full_id": "n9276058735", "osm_id": "9276058735", "osm_type": "node", "highway": "bus_stop", "operator": null, "direction": null, "network": null, "description": null, "name:signed": null, "lit": null, "bin": null, "noname": null, "shelter": null, "name": null, "departures_board": null, "covered": null, "bench": null, "public_transport": "platform", "bus": "yes" }, "geometry": { "type": "Point", "coordinates": [ -59.6084033, 13.1232706 ] } },
{ "type": "Feature", "properties": { "full_id": "n9276058736", "osm_id": "9276058736", "osm_type": "node", "highway": "bus_stop", "operator": null, "direction": null, "network": null, "description": null, "name:signed": null, "lit": null, "bin": null, "noname": null, "shelter": null, "name": null, "departures_board": null, "covered": null, "bench": null, "public_transport": "platform", "bus": "yes" }, "geometry": { "type": "Point", "coordinates": [ -59.6065538, 13.1283623 ] } },
{ "type": "Feature", "properties": { "full_id": "n9276058737", "osm_id": "9276058737", "osm_type": "node", "highway": "bus_stop", "operator": null, "direction": null, "network": null, "description": null, "name:signed": null, "lit": null, "bin": null, "noname": null, "shelter": null, "name": null, "departures_board": null, "covered": null, "bench": null, "public_transport": "platform", "bus": "yes" }, "geometry": { "type": "Point", "coordinates": [ -59.6057188, 13.1320215 ] } },
{ "type": "Feature", "properties": { "full_id": "n9276058738", "osm_id": "9276058738", "osm_type": "node", "highway": "bus_stop", "operator": null, "direction": null, "network": null, "description": null, "name:signed": null, "lit": null, "bin": null, "noname": null, "shelter": null, "name": null, "departures_board": null, "covered": null, "bench": null, "public_transport": "platform", "bus": "yes" }, "geometry": { "type": "Point", "coordinates": [ -59.6057448, 13.1345347 ] } },
{ "type": "Feature", "properties": { "full_id": "n9276058739", "osm_id": "9276058739", "osm_type": "node", "highway": "bus_stop", "operator": null, "direction": "out_of_town", "network": null, "description": null, "name:signed": null, "lit": null, "bin": null, "noname": null, "shelter": null, "name": null, "departures_board": null, "covered": null, "bench": null, "public_transport": "platform", "bus": "yes" }, "geometry": { "type": "Point", "coordinates": [ -59.60667, 13.1370558 ] } },
{ "type": "Feature", "properties": { "full_id": "n9276058740", "osm_id": "9276058740", "osm_type": "node", "highway": "bus_stop", "operator": null, "direction": null, "network": null, "description": null, "name:signed": null, "lit": null, "bin": null, "noname": null, "shelter": null, "name": null, "departures_board": null, "covered": null, "bench": null, "public_transport": "platform", "bus": "yes" }, "geometry": { "type": "Point", "coordinates": [ -59.6064558, 13.1409725 ] } },
{ "type": "Feature", "properties": { "full_id": "n9377859154", "osm_id": "9377859154", "osm_type": "node", "highway": "bus_stop", "operator": null, "direction": null, "network": null, "description": null, "name:signed": null, "lit": null, "bin": null, "noname": null, "shelter": "yes", "name": null, "departures_board": null, "covered": null, "bench": null, "public_transport": "platform", "bus": "yes" }, "geometry": { "type": "Point", "coordinates": [ -59.607826, 13.0834251 ] } },
{ "type": "Feature", "properties": { "full_id": "n9851960114", "osm_id": "9851960114", "osm_type": "node", "highway": "bus_stop", "operator": null, "direction": null, "network": null, "description": null, "name:signed": null, "lit": null, "bin": null, "noname": null, "shelter": null, "name": null, "departures_board": null, "covered": null, "bench": null, "public_transport": "platform", "bus": "yes" }, "geometry": { "type": "Point", "coordinates": [ -59.5789518, 13.1051568 ] } },
{ "type": "Feature", "properties": { "full_id": "n9851960128", "osm_id": "9851960128", "osm_type": "node", "highway": "bus_stop", "operator": null, "direction": null, "network": null, "description": null, "name:signed": null, "lit": null, "bin": null, "noname": null, "shelter": null, "name": null, "departures_board": null, "covered": null, "bench": null, "public_transport": "platform", "bus": "yes" }, "geometry": { "type": "Point", "coordinates": [ -59.5784488, 13.1054029 ] } },
{ "type": "Feature", "properties": { "full_id": "n9991432360", "osm_id": "9991432360", "osm_type": "node", "highway": "bus_stop", "operator": null, "direction": null, "network": null, "description": null, "name:signed": null, "lit": null, "bin": null, "noname": null, "shelter": null, "name": null, "departures_board": null, "covered": null, "bench": null, "public_transport": "platform", "bus": "yes" }, "geometry": { "type": "Point", "coordinates": [ -59.4517423, 13.1038152 ] } },
{ "type": "Feature", "properties": { "full_id": "n10077650505", "osm_id": "10077650505", "osm_type": "node", "highway": "bus_stop", "operator": null, "direction": null, "network": null, "description": null, "name:signed": null, "lit": null, "bin": null, "noname": null, "shelter": null, "name": null, "departures_board": null, "covered": null, "bench": null, "public_transport": "platform", "bus": "yes" }, "geometry": { "type": "Point", "coordinates": [ -59.5991993, 13.0940063 ] } },
{ "type": "Feature", "properties": { "full_id": "n10245782086", "osm_id": "10245782086", "osm_type": "node", "highway": "bus_stop", "operator": null, "direction": null, "network": null, "description": null, "name:signed": null, "lit": null, "bin": null, "noname": null, "shelter": null, "name": "Buses to Bridgetown", "departures_board": null, "covered": null, "bench": null, "public_transport": null, "bus": null }, "geometry": { "type": "Point", "coordinates": [ -59.4886092, 13.0811179 ] } },
{ "type": "Feature", "properties": { "full_id": "n10585176805", "osm_id": "10585176805", "osm_type": "node", "highway": "bus_stop", "operator": null, "direction": null, "network": null, "description": null, "name:signed": null, "lit": null, "bin": null, "noname": null, "shelter": null, "name": null, "departures_board": null, "covered": null, "bench": null, "public_transport": null, "bus": null }, "geometry": { "type": "Point", "coordinates": [ -59.5876867, 13.2225245 ] } },
{ "type": "Feature", "properties": { "full_id": "n10688519790", "osm_id": "10688519790", "osm_type": "node", "highway": "bus_stop", "operator": null, "direction": null, "network": null, "description": null, "name:signed": null, "lit": null, "bin": null, "noname": null, "shelter": null, "name": null, "departures_board": null, "covered": null, "bench": null, "public_transport": "platform", "bus": "yes" }, "geometry": { "type": "Point", "coordinates": [ -59.6009963, 13.1010062 ] } },
{ "type": "Feature", "properties": { "full_id": "n10688519791", "osm_id": "10688519791", "osm_type": "node", "highway": "bus_stop", "operator": null, "direction": null, "network": null, "description": null, "name:signed": null, "lit": null, "bin": null, "noname": null, "shelter": null, "name": null, "departures_board": null, "covered": null, "bench": null, "public_transport": "platform", "bus": "yes" }, "geometry": { "type": "Point", "coordinates": [ -59.6009117, 13.1012121 ] } },
{ "type": "Feature", "properties": { "full_id": "n11897963575", "osm_id": "11897963575", "osm_type": "node", "highway": "bus_stop", "operator": "Transport Board Barbados", "direction": null, "network": "12a", "description": null, "name:signed": null, "lit": "yes", "bin": null, "noname": null, "shelter": null, "name": null, "departures_board": "timetable", "covered": null, "bench": null, "public_transport": "platform", "bus": "yes" }, "geometry": { "type": "Point", "coordinates": [ -59.4348034, 13.1237882 ] } },
{ "type": "Feature", "properties": { "full_id": "n12057918669", "osm_id": "12057918669", "osm_type": "node", "highway": "bus_stop", "operator": null, "direction": null, "network": null, "description": null, "name:signed": null, "lit": null, "bin": null, "noname": null, "shelter": null, "name": null, "departures_board": null, "covered": null, "bench": null, "public_transport": "platform", "bus": "yes" }, "geometry": { "type": "Point", "coordinates": [ -59.5840488, 13.1141285 ] } },
{ "type": "Feature", "properties": { "full_id": "n12057918670", "osm_id": "12057918670", "osm_type": "node", "highway": "bus_stop", "operator": null, "direction": null, "network": null, "description": null, "name:signed": null, "lit": null, "bin": null, "noname": null, "shelter": null, "name": null, "departures_board": null, "covered": null, "bench": null, "public_transport": "platform", "bus": "yes" }, "geometry": { "type": "Point", "coordinates": [ -59.583825, 13.114183 ] } },
{ "type": "Feature", "properties": { "full_id": "n12519094961", "osm_id": "12519094961", "osm_type": "node", "highway": "bus_stop", "operator": null, "direction": null, "network": null, "description": null, "name:signed": null, "lit": null, "bin": null, "noname": null, "shelter": null, "name": null, "departures_board": null, "covered": null, "bench": null, "public_transport": "platform", "bus": "yes" }, "geometry": { "type": "Point", "coordinates": [ -59.5131257, 13.0783922 ] } },
{ "type": "Feature", "properties": { "full_id": "n12519105520", "osm_id": "12519105520", "osm_type": "node", "highway": "bus_stop", "operator": null, "direction": null, "network": null, "description": null, "name:signed": "no", "lit": "no", "bin": "no", "noname": null, "shelter": "no", "name": null, "departures_board": null, "covered": null, "bench": "no", "public_transport": "platform", "bus": "yes" }, "geometry": { "type": "Point", "coordinates": [ -59.5022393, 13.0806837 ] } },
{ "type": "Feature", "properties": { "full_id": "n12519123067", "osm_id": "12519123067", "osm_type": "node", "highway": "bus_stop", "operator": null, "direction": null, "network": null, "description": null, "name:signed": null, "lit": null, "bin": "no", "noname": null, "shelter": "no", "name": null, "departures_board": null, "covered": null, "bench": "no", "public_transport": "platform", "bus": "yes" }, "geometry": { "type": "Point", "coordinates": [ -59.5299691, 13.0687483 ] } },
{ "type": "Feature", "properties": { "full_id": "n12612839402", "osm_id": "12612839402", "osm_type": "node", "highway": "bus_stop", "operator": null, "direction": null, "network": null, "description": null, "name:signed": "no", "lit": null, "bin": "no", "noname": null, "shelter": "yes", "name": null, "departures_board": null, "covered": null, "bench": "yes", "public_transport": null, "bus": null }, "geometry": { "type": "Point", "coordinates": [ -59.6386023, 13.1921296 ] } },
{ "type": "Feature", "properties": { "full_id": "n12612839403", "osm_id": "12612839403", "osm_type": "node", "highway": "bus_stop", "operator": null, "direction": null, "network": null, "description": null, "name:signed": null, "lit": null, "bin": null, "noname": null, "shelter": null, "name": null, "departures_board": null, "covered": null, "bench": null, "public_transport": null, "bus": null }, "geometry": { "type": "Point", "coordinates": [ -59.6368942, 13.1888657 ] } },
{ "type": "Feature", "properties": { "full_id": "n12871944623", "osm_id": "12871944623", "osm_type": "node", "highway": "bus_stop", "operator": null, "direction": null, "network": null, "description": null, "name:signed": null, "lit": null, "bin": null, "noname": null, "shelter": null, "name": null, "departures_board": null, "covered": null, "bench": null, "public_transport": "platform", "bus": "yes" }, "geometry": { "type": "Point", "coordinates": [ -59.4831339, 13.1433787 ] } },
{ "type": "Feature", "properties": { "full_id": "n12945825187", "osm_id": "12945825187", "osm_type": "node", "highway": "bus_stop", "operator": null, "direction": null, "network": null, "description": null, "name:signed": null, "lit": null, "bin": null, "noname": null, "shelter": null, "name": null, "departures_board": null, "covered": null, "bench": null, "public_transport": "platform", "bus": "yes" }, "geometry": { "type": "Point", "coordinates": [ -59.4904983, 13.1361284 ] } },
{ "type": "Feature", "properties": { "full_id": "n12945825188", "osm_id": "12945825188", "osm_type": "node", "highway": "bus_stop", "operator": null, "direction": null, "network": null, "description": null, "name:signed": null, "lit": null, "bin": null, "noname": null, "shelter": null, "name": null, "departures_board": null, "covered": null, "bench": null, "public_transport": "platform", "bus": "yes" }, "geometry": { "type": "Point", "coordinates": [ -59.4889107, 13.1374019 ] } },
{ "type": "Feature", "properties": { "full_id": "n12945825189", "osm_id": "12945825189", "osm_type": "node", "highway": "bus_stop", "operator": null, "direction": null, "network": null, "description": null, "name:signed": null, "lit": null, "bin": null, "noname": null, "shelter": null, "name": null, "departures_board": null, "covered": null, "bench": null, "public_transport": "platform", "bus": "yes" }, "geometry": { "type": "Point", "coordinates": [ -59.4889841, 13.1372172 ] } },
{ "type": "Feature", "properties": { "full_id": "n13034163873", "osm_id": "13034163873", "osm_type": "node", "highway": "bus_stop", "operator": null, "direction": null, "network": null, "description": null, "name:signed": null, "lit": null, "bin": null, "noname": null, "shelter": "no", "name": null, "departures_board": null, "covered": null, "bench": null, "public_transport": "platform", "bus": "yes" }, "geometry": { "type": "Point", "coordinates": [ -59.5681235, 13.1849878 ] } },
{ "type": "Feature", "properties": { "full_id": "n13034179827", "osm_id": "13034179827", "osm_type": "node", "highway": "bus_stop", "operator": null, "direction": null, "network": null, "description": null, "name:signed": null, "lit": null, "bin": null, "noname": null, "shelter": "no", "name": null, "departures_board": null, "covered": null, "bench": null, "public_transport": "platform", "bus": "yes" }, "geometry": { "type": "Point", "coordinates": [ -59.5682542, 13.1848435 ] } },
{ "type": "Feature", "properties": { "full_id": "n13034179828", "osm_id": "13034179828", "osm_type": "node", "highway": "bus_stop", "operator": null, "direction": null, "network": null, "description": null, "name:signed": null, "lit": null, "bin": null, "noname": null, "shelter": "no", "name": null, "departures_board": null, "covered": null, "bench": null, "public_transport": "platform", "bus": "yes" }, "geometry": { "type": "Point", "coordinates": [ -59.5654634, 13.1897813 ] } },
{ "type": "Feature", "properties": { "full_id": "n13034179829", "osm_id": "13034179829", "osm_type": "node", "highway": "bus_stop", "operator": null, "direction": null, "network": null, "description": null, "name:signed": null, "lit": null, "bin": null, "noname": null, "shelter": "no", "name": null, "departures_board": null, "covered": null, "bench": null, "public_transport": "platform", "bus": "yes" }, "geometry": { "type": "Point", "coordinates": [ -59.5653626, 13.1900119 ] } }
]
}
