{
"type": "FeatureCollection",
"name": "admin_level_9_point",
"crs": { "type": "name", "properties": { "name": "urn:ogc:def:crs:OGC:1.3:CRS84" } },
"features": [
{ "type": "Feature", "properties": { "full_id": "n35994106", "osm_id": "35994106", "osm_type": "node", "ford": null, "tactile_paving": null, "crossing:markings": null, "crossing:island": null, "wikipedia": null, "postal_code": null, "access": null, "country": null, "wikidata": null, "place": null, "name": null, "barrier": null, "crossing": null, "traffic_signals": "signal", "highway": "traffic_signals" }, "geometry": { "type": "Point", "coordinates": [ -59.6013755, 13.0876158 ] } },
{ "type": "Feature", "properties": { "full_id": "n36316071", "osm_id": "36316071", "osm_type": "node", "ford": null, "tactile_paving": null, "crossing:markings": null, "crossing:island": null, "wikipedia": null, "postal_code": null, "access": null, "country": null, "wikidata": null, "place": null, "name": null, "barrier": null, "crossing": null, "traffic_signals": "signal", "highway": "traffic_signals" }, "geometry": { "type": "Point", "coordinates": [ -59.6104588, 13.1023178 ] } },
{ "type": "Feature", "properties": { "full_id": "n36317303", "osm_id": "36317303", "osm_type": "node", "ford": null, "tactile_paving": null, "crossing:markings": null, "crossing:island": null, "wikipedia": null, "postal_code": null, "access": null, "country": null, "wikidata": null, "place": null, "name": null, "barrier": null, "crossing": null, "traffic_signals": "signal", "highway": "traffic_signals" }, "geometry": { "type": "Point", "coordinates": [ -59.600867, 13.1018995 ] } },
{ "type": "Feature", "properties": { "full_id": "n36421791", "osm_id": "36421791", "osm_type": "node", "ford": null, "tactile_paving": null, "crossing:markings": null, "crossing:island": null, "wikipedia": null, "postal_code": null, "access": null, "country": null, "wikidata": null, "place": null, "name": null, "barrier": null, "crossing": null, "traffic_signals": "signal", "highway": "traffic_signals" }, "geometry": { "type": "Point", "coordinates": [ -59.6227953, 13.1463061 ] } },
{ "type": "Feature", "properties": { "full_id": "n36427581", "osm_id": "36427581", "osm_type": "node", "ford": null, "tactile_paving": null, "crossing:markings": null, "crossing:island": null, "wikipedia": null, "postal_code": null, "access": null, "country": null, "wikidata": null, "place": null, "name": null, "barrier": null, "crossing": "marked", "traffic_signals": null, "highway": "crossing" }, "geometry": { "type": "Point", "coordinates": [ -59.5003914, 13.0978224 ] } },
{ "type": "Feature", "properties": { "full_id": "n36428038", "osm_id": "36428038", "osm_type": "node", "ford": null, "tactile_paving": null, "crossing:markings": null, "crossing:island": null, "wikipedia": null, "postal_code": null, "access": null, "country": null, "wikidata": null, "place": null, "name": null, "barrier": null, "crossing": "zebra", "traffic_signals": null, "highway": "crossing" }, "geometry": { "type": "Point", "coordinates": [ -59.4874553, 13.0819174 ] } },
{ "type": "Feature", "properties": { "full_id": "n279121219", "osm_id": "279121219", "osm_type": "node", "ford": null, "tactile_paving": null, "crossing:markings": null, "crossing:island": null, "wikipedia": null, "postal_code": null, "access": null, "country": null, "wikidata": null, "place": null, "name": null, "barrier": null, "crossing": null, "traffic_signals": "signal", "highway": "traffic_signals" }, "geometry": { "type": "Point", "coordinates": [ -59.6013881, 13.1021257 ] } },
{ "type": "Feature", "properties": { "full_id": "n279124549", "osm_id": "279124549", "osm_type": "node", "ford": null, "tactile_paving": null, "crossing:markings": null, "crossing:island": null, "wikipedia": null, "postal_code": null, "access": null, "country": null, "wikidata": null, "place": null, "name": null, "barrier": null, "crossing": null, "traffic_signals": null, "highway": "crossing" }, "geometry": { "type": "Point", "coordinates": [ -59.6304687, 13.1452454 ] } },
{ "type": "Feature", "properties": { "full_id": "n314191446", "osm_id": "314191446", "osm_type": "node", "ford": null, "tactile_paving": null, "crossing:markings": null, "crossing:island": null, "wikipedia": null, "postal_code": null, "access": null, "country": null, "wikidata": null, "place": null, "name": null, "barrier": null, "crossing": "marked", "traffic_signals": null, "highway": "crossing" }, "geometry": { "type": "Point", "coordinates": [ -59.499394, 13.0976306 ] } },
{ "type": "Feature", "properties": { "full_id": "n319301468", "osm_id": "319301468", "osm_type": "node", "ford": null, "tactile_paving": null, "crossing:markings": null, "crossing:island": null, "wikipedia": null, "postal_code": null, "access": null, "country": null, "wikidata": null, "place": null, "name": null, "barrier": "gate", "crossing": null, "traffic_signals": null, "highway": null }, "geometry": { "type": "Point", "coordinates": [ -59.5360333, 13.106844 ] } },
{ "type": "Feature", "properties": { "full_id": "n436365586", "osm_id": "436365586", "osm_type": "node", "ford": null, "tactile_paving": null, "crossing:markings": null, "crossing:island": null, "wikipedia": null, "postal_code": null, "access": null, "country": null, "wikidata": null, "place": "suburb", "name": "Weston", "barrier": null, "crossing": null, "traffic_signals": null, "highway": null }, "geometry": { "type": "Point", "coordinates": [ -59.6388006, 13.2152914 ] } },
{ "type": "Feature", "properties": { "full_id": "n436400701", "osm_id": "436400701", "osm_type": "node", "ford": null, "tactile_paving": null, "crossing:markings": null, "crossing:island": null, "wikipedia": null, "postal_code": null, "access": null, "country": null, "wikidata": null, "place": "suburb", "name": "Porters", "barrier": null, "crossing": null, "traffic_signals": null, "highway": null }, "geometry": { "type": "Point", "coordinates": [ -59.6381053, 13.2015246 ] } },
{ "type": "Feature", "properties": { "full_id": "n439154867", "osm_id": "439154867", "osm_type": "node", "ford": null, "tactile_paving": null, "crossing:markings": null, "crossing:island": null, "wikipedia": null, "postal_code": null, "access": null, "country": null, "wikidata": null, "place": "village", "name": "Orange Hill", "barrier": null, "crossing": null, "traffic_signals": null, "highway": null }, "geometry": { "type": "Point", "coordinates": [ -59.606538, 13.2062086 ] } },
{ "type": "Feature", "properties": { "full_id": "n439176636", "osm_id": "439176636", "osm_type": "node", "ford": null, "tactile_paving": null, "crossing:markings": null, "crossing:island": null, "wikipedia": null, "postal_code": null, "access": null, "country": null, "wikidata": "Q25185030", "place": "village", "name": "Ellerton", "barrier": null, "crossing": null, "traffic_signals": null, "highway": null }, "geometry": { "type": "Point", "coordinates": [ -59.5394802, 13.1340832 ] } },
{ "type": "Feature", "properties": { "full_id": "n439984983", "osm_id": "439984983", "osm_type": "node", "ford": null, "tactile_paving": null, "crossing:markings": null, "crossing:island": null, "wikipedia": null, "postal_code": null, "access": null, "country": "BB", "wikidata": null, "place": "hamlet", "name": "Mangrove", "barrier": null, "crossing": null, "traffic_signals": null, "highway": null }, "geometry": { "type": "Point", "coordinates": [ -59.471027, 13.1029593 ] } },
{ "type": "Feature", "properties": { "full_id": "n439984984", "osm_id": "439984984", "osm_type": "node", "ford": null, "tactile_paving": null, "crossing:markings": null, "crossing:island": null, "wikipedia": null, "postal_code": null, "access": null, "country": "BB", "wikidata": "Q7401794", "place": "village", "name": "St Martins", "barrier": null, "crossing": null, "traffic_signals": null, "highway": null }, "geometry": { "type": "Point", "coordinates": [ -59.4648278, 13.095518 ] } },
{ "type": "Feature", "properties": { "full_id": "n439985106", "osm_id": "439985106", "osm_type": "node", "ford": null, "tactile_paving": null, "crossing:markings": null, "crossing:island": null, "wikipedia": null, "postal_code": null, "access": null, "country": "BB", "wikidata": "Q4923754", "place": "neighbourhood", "name": "Blades", "barrier": null, "crossing": null, "traffic_signals": null, "highway": null }, "geometry": { "type": "Point", "coordinates": [ -59.4681836, 13.1082729 ] } },
{ "type": "Feature", "properties": { "full_id": "n440734688", "osm_id": "440734688", "osm_type": "node", "ford": null, "tactile_paving": null, "crossing:markings": null, "crossing:island": null, "wikipedia": null, "postal_code": null, "access": null, "country": null, "wikidata": null, "place": "suburb", "name": "South District", "barrier": null, "crossing": null, "traffic_signals": null, "highway": null }, "geometry": { "type": "Point", "coordinates": [ -59.5611929, 13.1083457 ] } },
{ "type": "Feature", "properties": { "full_id": "n440734689", "osm_id": "440734689", "osm_type": "node", "ford": null, "tactile_paving": null, "crossing:markings": null, "crossing:island": null, "wikipedia": null, "postal_code": null, "access": null, "country": null, "wikidata": null, "place": "suburb", "name": "Dash Valley", "barrier": null, "crossing": null, "traffic_signals": null, "highway": null }, "geometry": { "type": "Point", "coordinates": [ -59.5653128, 13.1099757 ] } },
{ "type": "Feature", "properties": { "full_id": "n440734691", "osm_id": "440734691", "osm_type": "node", "ford": null, "tactile_paving": null, "crossing:markings": null, "crossing:island": null, "wikipedia": null, "postal_code": null, "access": null, "country": null, "wikidata": null, "place": "hamlet", "name": "Carmichael", "barrier": null, "crossing": null, "traffic_signals": null, "highway": null }, "geometry": { "type": "Point", "coordinates": [ -59.5417522, 13.1191709 ] } },
{ "type": "Feature", "properties": { "full_id": "n441987213", "osm_id": "441987213", "osm_type": "node", "ford": null, "tactile_paving": null, "crossing:markings": null, "crossing:island": null, "wikipedia": null, "postal_code": null, "access": null, "country": "BB", "wikidata": null, "place": "hamlet", "name": "Highland", "barrier": null, "crossing": null, "traffic_signals": null, "highway": null }, "geometry": { "type": "Point", "coordinates": [ -59.4860759, 13.1074864 ] } },
{ "type": "Feature", "properties": { "full_id": "n445300495", "osm_id": "445300495", "osm_type": "node", "ford": null, "tactile_paving": null, "crossing:markings": null, "crossing:island": null, "wikipedia": null, "postal_code": null, "access": null, "country": null, "wikidata": null, "place": "village", "name": "Clermont", "barrier": null, "crossing": null, "traffic_signals": null, "highway": null }, "geometry": { "type": "Point", "coordinates": [ -59.6161067, 13.1454277 ] } },
{ "type": "Feature", "properties": { "full_id": "n445310685", "osm_id": "445310685", "osm_type": "node", "ford": null, "tactile_paving": null, "crossing:markings": null, "crossing:island": null, "wikipedia": null, "postal_code": null, "access": null, "country": null, "wikidata": null, "place": "suburb", "name": "Sandy Lane", "barrier": null, "crossing": null, "traffic_signals": null, "highway": null }, "geometry": { "type": "Point", "coordinates": [ -59.6289212, 13.174178 ] } },
{ "type": "Feature", "properties": { "full_id": "n445321560", "osm_id": "445321560", "osm_type": "node", "ford": null, "tactile_paving": null, "crossing:markings": null, "crossing:island": null, "wikipedia": null, "postal_code": null, "access": null, "country": null, "wikidata": null, "place": "suburb", "name": "The Garden", "barrier": null, "crossing": null, "traffic_signals": null, "highway": null }, "geometry": { "type": "Point", "coordinates": [ -59.6386347, 13.20811 ] } },
{ "type": "Feature", "properties": { "full_id": "n668906273", "osm_id": "668906273", "osm_type": "node", "ford": null, "tactile_paving": null, "crossing:markings": null, "crossing:island": null, "wikipedia": null, "postal_code": null, "access": null, "country": null, "wikidata": null, "place": "suburb", "name": "Kingsland", "barrier": null, "crossing": null, "traffic_signals": null, "highway": null }, "geometry": { "type": "Point", "coordinates": [ -59.543854, 13.0785287 ] } },
{ "type": "Feature", "properties": { "full_id": "n1092220822", "osm_id": "1092220822", "osm_type": "node", "ford": null, "tactile_paving": null, "crossing:markings": null, "crossing:island": null, "wikipedia": null, "postal_code": null, "access": "private", "country": null, "wikidata": null, "place": null, "name": null, "barrier": "gate", "crossing": null, "traffic_signals": null, "highway": null }, "geometry": { "type": "Point", "coordinates": [ -59.6103119, 13.1515748 ] } },
{ "type": "Feature", "properties": { "full_id": "n1942137777", "osm_id": "1942137777", "osm_type": "node", "ford": null, "tactile_paving": null, "crossing:markings": null, "crossing:island": null, "wikipedia": null, "postal_code": null, "access": null, "country": null, "wikidata": null, "place": null, "name": null, "barrier": null, "crossing": null, "traffic_signals": "signal", "highway": "traffic_signals" }, "geometry": { "type": "Point", "coordinates": [ -59.6280813, 13.13714 ] } },
{ "type": "Feature", "properties": { "full_id": "n3843900512", "osm_id": "3843900512", "osm_type": "node", "ford": null, "tactile_paving": null, "crossing:markings": null, "crossing:island": null, "wikipedia": null, "postal_code": null, "access": null, "country": "BB", "wikidata": null, "place": "suburb", "name": "New Orleans", "barrier": null, "crossing": null, "traffic_signals": null, "highway": null }, "geometry": { "type": "Point", "coordinates": [ -59.6190236, 13.1041167 ] } },
{ "type": "Feature", "properties": { "full_id": "n3872205026", "osm_id": "3872205026", "osm_type": "node", "ford": null, "tactile_paving": null, "crossing:markings": null, "crossing:island": null, "wikipedia": null, "postal_code": null, "access": null, "country": null, "wikidata": null, "place": null, "name": null, "barrier": null, "crossing": "zebra", "traffic_signals": null, "highway": "crossing" }, "geometry": { "type": "Point", "coordinates": [ -59.4907817, 13.0805011 ] } },
{ "type": "Feature", "properties": { "full_id": "n3872205030", "osm_id": "3872205030", "osm_type": "node", "ford": null, "tactile_paving": null, "crossing:markings": null, "crossing:island": null, "wikipedia": null, "postal_code": null, "access": null, "country": null, "wikidata": null, "place": null, "name": null, "barrier": null, "crossing": "zebra", "traffic_signals": null, "highway": "crossing" }, "geometry": { "type": "Point", "coordinates": [ -59.4917702, 13.0802092 ] } },
{ "type": "Feature", "properties": { "full_id": "n3877287698", "osm_id": "3877287698", "osm_type": "node", "ford": null, "tactile_paving": null, "crossing:markings": null, "crossing:island": null, "wikipedia": null, "postal_code": null, "access": null, "country": null, "wikidata": null, "place": null, "name": null, "barrier": null, "crossing": null, "traffic_signals": null, "highway": "crossing" }, "geometry": { "type": "Point", "coordinates": [ -59.6124377, 13.1862453 ] } },
{ "type": "Feature", "properties": { "full_id": "n3883583369", "osm_id": "3883583369", "osm_type": "node", "ford": null, "tactile_paving": null, "crossing:markings": null, "crossing:island": null, "wikipedia": null, "postal_code": null, "access": null, "country": null, "wikidata": null, "place": "village", "name": "Greenwich", "barrier": null, "crossing": null, "traffic_signals": null, "highway": null }, "geometry": { "type": "Point", "coordinates": [ -59.6217961, 13.1982775 ] } },
{ "type": "Feature", "properties": { "full_id": "n3884026190", "osm_id": "3884026190", "osm_type": "node", "ford": null, "tactile_paving": null, "crossing:markings": null, "crossing:island": null, "wikipedia": null, "postal_code": null, "access": null, "country": null, "wikidata": null, "place": null, "name": null, "barrier": null, "crossing": null, "traffic_signals": "signal", "highway": "traffic_signals" }, "geometry": { "type": "Point", "coordinates": [ -59.6237639, 13.1357302 ] } },
{ "type": "Feature", "properties": { "full_id": "n3886165480", "osm_id": "3886165480", "osm_type": "node", "ford": null, "tactile_paving": null, "crossing:markings": null, "crossing:island": null, "wikipedia": null, "postal_code": null, "access": null, "country": null, "wikidata": null, "place": null, "name": null, "barrier": null, "crossing": "zebra", "traffic_signals": null, "highway": "crossing" }, "geometry": { "type": "Point", "coordinates": [ -59.6194623, 13.1061222 ] } },
{ "type": "Feature", "properties": { "full_id": "n3895760298", "osm_id": "3895760298", "osm_type": "node", "ford": null, "tactile_paving": null, "crossing:markings": null, "crossing:island": null, "wikipedia": null, "postal_code": null, "access": null, "country": null, "wikidata": null, "place": "suburb", "name": "Charnocks", "barrier": null, "crossing": null, "traffic_signals": null, "highway": null }, "geometry": { "type": "Point", "coordinates": [ -59.4938405, 13.0837023 ] } },
{ "type": "Feature", "properties": { "full_id": "n3895953584", "osm_id": "3895953584", "osm_type": "node", "ford": null, "tactile_paving": null, "crossing:markings": null, "crossing:island": null, "wikipedia": null, "postal_code": null, "access": null, "country": "BB", "wikidata": null, "place": "hamlet", "name": "Foursquare", "barrier": null, "crossing": null, "traffic_signals": null, "highway": null }, "geometry": { "type": "Point", "coordinates": [ -59.4823719, 13.1044707 ] } },
{ "type": "Feature", "properties": { "full_id": "n4336201146", "osm_id": "4336201146", "osm_type": "node", "ford": null, "tactile_paving": null, "crossing:markings": null, "crossing:island": null, "wikipedia": null, "postal_code": null, "access": null, "country": null, "wikidata": null, "place": null, "name": null, "barrier": null, "crossing": null, "traffic_signals": null, "highway": "crossing" }, "geometry": { "type": "Point", "coordinates": [ -59.6238961, 13.135747 ] } },
{ "type": "Feature", "properties": { "full_id": "n4365095205", "osm_id": "4365095205", "osm_type": "node", "ford": null, "tactile_paving": null, "crossing:markings": null, "crossing:island": null, "wikipedia": null, "postal_code": null, "access": null, "country": null, "wikidata": null, "place": null, "name": null, "barrier": null, "crossing": null, "traffic_signals": null, "highway": "crossing" }, "geometry": { "type": "Point", "coordinates": [ -59.5278735, 13.0989128 ] } },
{ "type": "Feature", "properties": { "full_id": "n4365095217", "osm_id": "4365095217", "osm_type": "node", "ford": null, "tactile_paving": null, "crossing:markings": null, "crossing:island": null, "wikipedia": null, "postal_code": null, "access": null, "country": null, "wikidata": null, "place": null, "name": null, "barrier": null, "crossing": null, "traffic_signals": null, "highway": "crossing" }, "geometry": { "type": "Point", "coordinates": [ -59.5280787, 13.0994068 ] } },
{ "type": "Feature", "properties": { "full_id": "n4782867296", "osm_id": "4782867296", "osm_type": "node", "ford": null, "tactile_paving": null, "crossing:markings": null, "crossing:island": null, "wikipedia": null, "postal_code": "BB18046", "access": null, "country": "BB", "wikidata": "Q16903613", "place": "village", "name": "Woodbourne", "barrier": null, "crossing": null, "traffic_signals": null, "highway": null }, "geometry": { "type": "Point", "coordinates": [ -59.492276, 13.102556 ] } },
{ "type": "Feature", "properties": { "full_id": "n4782867297", "osm_id": "4782867297", "osm_type": "node", "ford": null, "tactile_paving": null, "crossing:markings": null, "crossing:island": null, "wikipedia": null, "postal_code": null, "access": null, "country": "BB", "wikidata": null, "place": "suburb", "name": "St. Patrick's", "barrier": null, "crossing": null, "traffic_signals": null, "highway": null }, "geometry": { "type": "Point", "coordinates": [ -59.4987777, 13.0980627 ] } },
{ "type": "Feature", "properties": { "full_id": "n4784807797", "osm_id": "4784807797", "osm_type": "node", "ford": null, "tactile_paving": null, "crossing:markings": null, "crossing:island": null, "wikipedia": null, "postal_code": null, "access": null, "country": "BB", "wikidata": null, "place": "village", "name": "Ruby", "barrier": null, "crossing": null, "traffic_signals": null, "highway": null }, "geometry": { "type": "Point", "coordinates": [ -59.4429319, 13.1262281 ] } },
{ "type": "Feature", "properties": { "full_id": "n4922562311", "osm_id": "4922562311", "osm_type": "node", "ford": null, "tactile_paving": null, "crossing:markings": null, "crossing:island": null, "wikipedia": "en:Six Cross Roads, Barbados", "postal_code": null, "access": null, "country": "BB", "wikidata": "Q7532684", "place": "town", "name": "Six Cross Roads", "barrier": null, "crossing": null, "traffic_signals": null, "highway": null }, "geometry": { "type": "Point", "coordinates": [ -59.477014, 13.1177924 ] } },
{ "type": "Feature", "properties": { "full_id": "n4925482548", "osm_id": "4925482548", "osm_type": "node", "ford": null, "tactile_paving": null, "crossing:markings": null, "crossing:island": null, "wikipedia": null, "postal_code": null, "access": null, "country": "BB", "wikidata": null, "place": "suburb", "name": "Newton", "barrier": null, "crossing": null, "traffic_signals": null, "highway": null }, "geometry": { "type": "Point", "coordinates": [ -59.5327251, 13.0791896 ] } },
{ "type": "Feature", "properties": { "full_id": "n4926777044", "osm_id": "4926777044", "osm_type": "node", "ford": null, "tactile_paving": null, "crossing:markings": null, "crossing:island": null, "wikipedia": null, "postal_code": null, "access": null, "country": "BB", "wikidata": null, "place": "suburb", "name": "Haggatt Hall", "barrier": null, "crossing": null, "traffic_signals": null, "highway": null }, "geometry": { "type": "Point", "coordinates": [ -59.577931, 13.1065039 ] } },
{ "type": "Feature", "properties": { "full_id": "n5005030958", "osm_id": "5005030958", "osm_type": "node", "ford": null, "tactile_paving": null, "crossing:markings": null, "crossing:island": null, "wikipedia": null, "postal_code": null, "access": null, "country": null, "wikidata": null, "place": "village", "name": "Union Hall", "barrier": null, "crossing": null, "traffic_signals": null, "highway": null }, "geometry": { "type": "Point", "coordinates": [ -59.4469865, 13.1190569 ] } },
{ "type": "Feature", "properties": { "full_id": "n5005030959", "osm_id": "5005030959", "osm_type": "node", "ford": null, "tactile_paving": null, "crossing:markings": null, "crossing:island": null, "wikipedia": null, "postal_code": null, "access": null, "country": null, "wikidata": null, "place": "hamlet", "name": "Kirtons", "barrier": null, "crossing": null, "traffic_signals": null, "highway": null }, "geometry": { "type": "Point", "coordinates": [ -59.4605906, 13.1083346 ] } },
{ "type": "Feature", "properties": { "full_id": "n5005030960", "osm_id": "5005030960", "osm_type": "node", "ford": null, "tactile_paving": null, "crossing:markings": null, "crossing:island": null, "wikipedia": "en:The Crane, Barbados", "postal_code": null, "access": null, "country": null, "wikidata": "Q7727953", "place": "village", "name": "Crane", "barrier": null, "crossing": null, "traffic_signals": null, "highway": null }, "geometry": { "type": "Point", "coordinates": [ -59.4471092, 13.1052506 ] } },
{ "type": "Feature", "properties": { "full_id": "n5005030961", "osm_id": "5005030961", "osm_type": "node", "ford": null, "tactile_paving": null, "crossing:markings": null, "crossing:island": null, "wikipedia": null, "postal_code": "BB18075", "access": null, "country": null, "wikidata": null, "place": "village", "name": "Belair", "barrier": null, "crossing": null, "traffic_signals": null, "highway": null }, "geometry": { "type": "Point", "coordinates": [ -59.4412052, 13.1181729 ] } },
{ "type": "Feature", "properties": { "full_id": "n5007794540", "osm_id": "5007794540", "osm_type": "node", "ford": null, "tactile_paving": null, "crossing:markings": null, "crossing:island": null, "wikipedia": null, "postal_code": "BB18090", "access": null, "country": null, "wikidata": null, "place": "hamlet", "name": "Heddings", "barrier": null, "crossing": null, "traffic_signals": null, "highway": null }, "geometry": { "type": "Point", "coordinates": [ -59.4597322, 13.1004861 ] } },
{ "type": "Feature", "properties": { "full_id": "n5007794596", "osm_id": "5007794596", "osm_type": "node", "ford": null, "tactile_paving": null, "crossing:markings": null, "crossing:island": null, "wikipedia": null, "postal_code": null, "access": null, "country": null, "wikidata": null, "place": "isolated_dwelling", "name": "Grove", "barrier": null, "crossing": null, "traffic_signals": null, "highway": null }, "geometry": { "type": "Point", "coordinates": [ -59.4695229, 13.116295 ] } },
{ "type": "Feature", "properties": { "full_id": "n5007794597", "osm_id": "5007794597", "osm_type": "node", "ford": null, "tactile_paving": null, "crossing:markings": null, "crossing:island": null, "wikipedia": null, "postal_code": null, "access": null, "country": null, "wikidata": null, "place": "isolated_dwelling", "name": "Sterling", "barrier": null, "crossing": null, "traffic_signals": null, "highway": null }, "geometry": { "type": "Point", "coordinates": [ -59.4606663, 13.1166502 ] } },
{ "type": "Feature", "properties": { "full_id": "n5007794607", "osm_id": "5007794607", "osm_type": "node", "ford": null, "tactile_paving": null, "crossing:markings": null, "crossing:island": null, "wikipedia": null, "postal_code": null, "access": null, "country": null, "wikidata": null, "place": "neighbourhood", "name": "Stroude Land", "barrier": null, "crossing": null, "traffic_signals": null, "highway": null }, "geometry": { "type": "Point", "coordinates": [ -59.453083, 13.1188576 ] } },
{ "type": "Feature", "properties": { "full_id": "n5007794610", "osm_id": "5007794610", "osm_type": "node", "ford": null, "tactile_paving": null, "crossing:markings": null, "crossing:island": null, "wikipedia": null, "postal_code": null, "access": null, "country": null, "wikidata": null, "place": "village", "name": "Diamond Valley", "barrier": null, "crossing": null, "traffic_signals": null, "highway": null }, "geometry": { "type": "Point", "coordinates": [ -59.4481169, 13.1118176 ] } },
{ "type": "Feature", "properties": { "full_id": "n5007794611", "osm_id": "5007794611", "osm_type": "node", "ford": null, "tactile_paving": null, "crossing:markings": null, "crossing:island": null, "wikipedia": null, "postal_code": null, "access": null, "country": null, "wikidata": null, "place": "suburb", "name": "Seaview", "barrier": null, "crossing": null, "traffic_signals": null, "highway": null }, "geometry": { "type": "Point", "coordinates": [ -59.4389384, 13.124095 ] } },
{ "type": "Feature", "properties": { "full_id": "n5007794612", "osm_id": "5007794612", "osm_type": "node", "ford": null, "tactile_paving": null, "crossing:markings": null, "crossing:island": null, "wikipedia": null, "postal_code": null, "access": null, "country": null, "wikidata": null, "place": "neighbourhood", "name": "Lucas Street", "barrier": null, "crossing": null, "traffic_signals": null, "highway": null }, "geometry": { "type": "Point", "coordinates": [ -59.456944, 13.1285722 ] } },
{ "type": "Feature", "properties": { "full_id": "n5007794613", "osm_id": "5007794613", "osm_type": "node", "ford": null, "tactile_paving": null, "crossing:markings": null, "crossing:island": null, "wikipedia": null, "postal_code": null, "access": null, "country": null, "wikidata": null, "place": "neighbourhood", "name": "Duncans", "barrier": null, "crossing": null, "traffic_signals": null, "highway": null }, "geometry": { "type": "Point", "coordinates": [ -59.4519391, 13.1239121 ] } },
{ "type": "Feature", "properties": { "full_id": "n5032761789", "osm_id": "5032761789", "osm_type": "node", "ford": null, "tactile_paving": null, "crossing:markings": null, "crossing:island": null, "wikipedia": null, "postal_code": null, "access": null, "country": null, "wikidata": null, "place": "suburb", "name": "Belleville", "barrier": null, "crossing": null, "traffic_signals": null, "highway": null }, "geometry": { "type": "Point", "coordinates": [ -59.6026292, 13.0964171 ] } },
{ "type": "Feature", "properties": { "full_id": "n5032762063", "osm_id": "5032762063", "osm_type": "node", "ford": null, "tactile_paving": null, "crossing:markings": null, "crossing:island": null, "wikipedia": null, "postal_code": null, "access": null, "country": null, "wikidata": null, "place": "suburb", "name": "Eden Lodge", "barrier": null, "crossing": null, "traffic_signals": null, "highway": null }, "geometry": { "type": "Point", "coordinates": [ -59.60955, 13.1348106 ] } },
{ "type": "Feature", "properties": { "full_id": "n5055075193", "osm_id": "5055075193", "osm_type": "node", "ford": null, "tactile_paving": null, "crossing:markings": null, "crossing:island": null, "wikipedia": null, "postal_code": null, "access": null, "country": null, "wikidata": null, "place": "suburb", "name": "Lower Estate", "barrier": null, "crossing": null, "traffic_signals": null, "highway": null }, "geometry": { "type": "Point", "coordinates": [ -59.5838356, 13.1310566 ] } },
{ "type": "Feature", "properties": { "full_id": "n5055075206", "osm_id": "5055075206", "osm_type": "node", "ford": null, "tactile_paving": null, "crossing:markings": null, "crossing:island": null, "wikipedia": null, "postal_code": null, "access": null, "country": null, "wikidata": null, "place": "suburb", "name": "Neils", "barrier": null, "crossing": null, "traffic_signals": null, "highway": null }, "geometry": { "type": "Point", "coordinates": [ -59.579587, 13.1180742 ] } },
{ "type": "Feature", "properties": { "full_id": "n5055075232", "osm_id": "5055075232", "osm_type": "node", "ford": null, "tactile_paving": null, "crossing:markings": null, "crossing:island": null, "wikipedia": null, "postal_code": null, "access": null, "country": null, "wikidata": null, "place": "suburb", "name": "Parish Land", "barrier": null, "crossing": null, "traffic_signals": null, "highway": null }, "geometry": { "type": "Point", "coordinates": [ -59.5719749, 13.1291497 ] } },
{ "type": "Feature", "properties": { "full_id": "n5055077841", "osm_id": "5055077841", "osm_type": "node", "ford": null, "tactile_paving": null, "crossing:markings": null, "crossing:island": null, "wikipedia": null, "postal_code": null, "access": null, "country": null, "wikidata": null, "place": "suburb", "name": "Hothersal Turning", "barrier": null, "crossing": null, "traffic_signals": null, "highway": null }, "geometry": { "type": "Point", "coordinates": [ -59.5936283, 13.1302834 ] } },
{ "type": "Feature", "properties": { "full_id": "n5062478268", "osm_id": "5062478268", "osm_type": "node", "ford": null, "tactile_paving": null, "crossing:markings": null, "crossing:island": null, "wikipedia": null, "postal_code": null, "access": null, "country": null, "wikidata": null, "place": "neighbourhood", "name": "Cox Road", "barrier": null, "crossing": null, "traffic_signals": null, "highway": null }, "geometry": { "type": "Point", "coordinates": [ -59.548104, 13.0979734 ] } },
{ "type": "Feature", "properties": { "full_id": "n5089345123", "osm_id": "5089345123", "osm_type": "node", "ford": null, "tactile_paving": null, "crossing:markings": null, "crossing:island": null, "wikipedia": null, "postal_code": null, "access": null, "country": null, "wikidata": null, "place": null, "name": null, "barrier": null, "crossing": "zebra", "traffic_signals": null, "highway": "crossing" }, "geometry": { "type": "Point", "coordinates": [ -59.4885369, 13.0811551 ] } },
{ "type": "Feature", "properties": { "full_id": "n5102175261", "osm_id": "5102175261", "osm_type": "node", "ford": null, "tactile_paving": null, "crossing:markings": null, "crossing:island": null, "wikipedia": null, "postal_code": "BB22025", "access": null, "country": null, "wikidata": null, "place": "village", "name": "Welches", "barrier": null, "crossing": null, "traffic_signals": null, "highway": null }, "geometry": { "type": "Point", "coordinates": [ -59.6124685, 13.1532688 ] } },
{ "type": "Feature", "properties": { "full_id": "n5102218980", "osm_id": "5102218980", "osm_type": "node", "ford": null, "tactile_paving": null, "crossing:markings": null, "crossing:island": null, "wikipedia": null, "postal_code": null, "access": null, "country": null, "wikidata": null, "place": "hamlet", "name": "Foul Bay", "barrier": null, "crossing": null, "traffic_signals": null, "highway": null }, "geometry": { "type": "Point", "coordinates": [ -59.454875, 13.0966061 ] } },
{ "type": "Feature", "properties": { "full_id": "n5102218983", "osm_id": "5102218983", "osm_type": "node", "ford": null, "tactile_paving": null, "crossing:markings": null, "crossing:island": null, "wikipedia": null, "postal_code": null, "access": null, "country": null, "wikidata": null, "place": "hamlet", "name": "Greenpoint", "barrier": null, "crossing": null, "traffic_signals": null, "highway": null }, "geometry": { "type": "Point", "coordinates": [ -59.4619131, 13.0876087 ] } },
{ "type": "Feature", "properties": { "full_id": "n5138802830", "osm_id": "5138802830", "osm_type": "node", "ford": null, "tactile_paving": null, "crossing:markings": null, "crossing:island": null, "wikipedia": null, "postal_code": null, "access": null, "country": null, "wikidata": null, "place": "hamlet", "name": "Brighton", "barrier": null, "crossing": null, "traffic_signals": null, "highway": null }, "geometry": { "type": "Point", "coordinates": [ -59.5293108, 13.12293 ] } },
{ "type": "Feature", "properties": { "full_id": "n5142339083", "osm_id": "5142339083", "osm_type": "node", "ford": null, "tactile_paving": null, "crossing:markings": null, "crossing:island": null, "wikipedia": null, "postal_code": null, "access": null, "country": null, "wikidata": null, "place": "suburb", "name": "Walkers", "barrier": null, "crossing": null, "traffic_signals": null, "highway": null }, "geometry": { "type": "Point", "coordinates": [ -59.5599577, 13.1323901 ] } },
{ "type": "Feature", "properties": { "full_id": "n5198404419", "osm_id": "5198404419", "osm_type": "node", "ford": null, "tactile_paving": null, "crossing:markings": null, "crossing:island": null, "wikipedia": null, "postal_code": null, "access": null, "country": null, "wikidata": null, "place": "village", "name": "Wellhouse", "barrier": null, "crossing": null, "traffic_signals": null, "highway": null }, "geometry": { "type": "Point", "coordinates": [ -59.4361813, 13.1367051 ] } },
{ "type": "Feature", "properties": { "full_id": "n5198404420", "osm_id": "5198404420", "osm_type": "node", "ford": null, "tactile_paving": null, "crossing:markings": null, "crossing:island": null, "wikipedia": null, "postal_code": "BB18071", "access": null, "country": null, "wikidata": null, "place": "village", "name": "Harrismith", "barrier": null, "crossing": null, "traffic_signals": null, "highway": null }, "geometry": { "type": "Point", "coordinates": [ -59.4314006, 13.1346968 ] } },
{ "type": "Feature", "properties": { "full_id": "n5198405925", "osm_id": "5198405925", "osm_type": "node", "ford": null, "tactile_paving": null, "crossing:markings": null, "crossing:island": null, "wikipedia": null, "postal_code": null, "access": null, "country": null, "wikidata": null, "place": "village", "name": "Merricks", "barrier": null, "crossing": null, "traffic_signals": null, "highway": null }, "geometry": { "type": "Point", "coordinates": [ -59.4299615, 13.1457618 ] } },
{ "type": "Feature", "properties": { "full_id": "n5204368150", "osm_id": "5204368150", "osm_type": "node", "ford": null, "tactile_paving": null, "crossing:markings": null, "crossing:island": null, "wikipedia": null, "postal_code": null, "access": null, "country": null, "wikidata": null, "place": "suburb", "name": "Upper Carlton", "barrier": null, "crossing": null, "traffic_signals": null, "highway": null }, "geometry": { "type": "Point", "coordinates": [ -59.6242833, 13.220906 ] } },
{ "type": "Feature", "properties": { "full_id": "n5204368151", "osm_id": "5204368151", "osm_type": "node", "ford": null, "tactile_paving": null, "crossing:markings": null, "crossing:island": null, "wikipedia": null, "postal_code": null, "access": null, "country": null, "wikidata": null, "place": "suburb", "name": "Sion Hill", "barrier": null, "crossing": null, "traffic_signals": null, "highway": null }, "geometry": { "type": "Point", "coordinates": [ -59.6225238, 13.2244571 ] } },
{ "type": "Feature", "properties": { "full_id": "n5204368152", "osm_id": "5204368152", "osm_type": "node", "ford": null, "tactile_paving": null, "crossing:markings": null, "crossing:island": null, "wikipedia": null, "postal_code": null, "access": null, "country": null, "wikidata": null, "place": "suburb", "name": "Lower Carlton", "barrier": null, "crossing": null, "traffic_signals": null, "highway": null }, "geometry": { "type": "Point", "coordinates": [ -59.6391535, 13.2217938 ] } },
{ "type": "Feature", "properties": { "full_id": "n5204368165", "osm_id": "5204368165", "osm_type": "node", "ford": null, "tactile_paving": null, "crossing:markings": null, "crossing:island": null, "wikipedia": null, "postal_code": null, "access": null, "country": null, "wikidata": null, "place": "suburb", "name": "Jamestown Park", "barrier": null, "crossing": null, "traffic_signals": null, "highway": null }, "geometry": { "type": "Point", "coordinates": [ -59.6342397, 13.1877477 ] } },
{ "type": "Feature", "properties": { "full_id": "n5204368166", "osm_id": "5204368166", "osm_type": "node", "ford": null, "tactile_paving": null, "crossing:markings": null, "crossing:island": null, "wikipedia": null, "postal_code": null, "access": null, "country": null, "wikidata": null, "place": "suburb", "name": "Sunset Crest", "barrier": null, "crossing": null, "traffic_signals": null, "highway": null }, "geometry": { "type": "Point", "coordinates": [ -59.636364, 13.1818928 ] } },
{ "type": "Feature", "properties": { "full_id": "n5204369422", "osm_id": "5204369422", "osm_type": "node", "ford": null, "tactile_paving": null, "crossing:markings": null, "crossing:island": null, "wikipedia": null, "postal_code": null, "access": null, "country": null, "wikidata": null, "place": "suburb", "name": "Oxnards", "barrier": null, "crossing": null, "traffic_signals": null, "highway": null }, "geometry": { "type": "Point", "coordinates": [ -59.6288484, 13.1472979 ] } },
{ "type": "Feature", "properties": { "full_id": "n5204369432", "osm_id": "5204369432", "osm_type": "node", "ford": null, "tactile_paving": null, "crossing:markings": null, "crossing:island": null, "wikipedia": null, "postal_code": null, "access": null, "country": null, "wikidata": null, "place": "village", "name": "Husbands", "barrier": null, "crossing": null, "traffic_signals": null, "highway": null }, "geometry": { "type": "Point", "coordinates": [ -59.6230355, 13.1446031 ] } },
{ "type": "Feature", "properties": { "full_id": "n5204369469", "osm_id": "5204369469", "osm_type": "node", "ford": null, "tactile_paving": null, "crossing:markings": null, "crossing:island": null, "wikipedia": null, "postal_code": null, "access": null, "country": null, "wikidata": null, "place": "suburb", "name": "Wanstead", "barrier": null, "crossing": null, "traffic_signals": null, "highway": null }, "geometry": { "type": "Point", "coordinates": [ -59.6279741, 13.1394986 ] } },
{ "type": "Feature", "properties": { "full_id": "n5204369475", "osm_id": "5204369475", "osm_type": "node", "ford": null, "tactile_paving": null, "crossing:markings": null, "crossing:island": null, "wikipedia": null, "postal_code": null, "access": null, "country": null, "wikidata": null, "place": "suburb", "name": "West Terrace", "barrier": null, "crossing": null, "traffic_signals": null, "highway": null }, "geometry": { "type": "Point", "coordinates": [ -59.6320725, 13.1450046 ] } },
{ "type": "Feature", "properties": { "full_id": "n5204369478", "osm_id": "5204369478", "osm_type": "node", "ford": null, "tactile_paving": null, "crossing:markings": null, "crossing:island": null, "wikipedia": null, "postal_code": null, "access": null, "country": null, "wikidata": null, "place": "suburb", "name": null, "barrier": null, "crossing": null, "traffic_signals": null, "highway": null }, "geometry": { "type": "Point", "coordinates": [ -59.6163471, 13.1385252 ] } },
{ "type": "Feature", "properties": { "full_id": "n5204369479", "osm_id": "5204369479", "osm_type": "node", "ford": null, "tactile_paving": null, "crossing:markings": null, "crossing:island": null, "wikipedia": null, "postal_code": null, "access": null, "country": null, "wikidata": null, "place": "suburb", "name": "Rock Dundo", "barrier": null, "crossing": null, "traffic_signals": null, "highway": null }, "geometry": { "type": "Point", "coordinates": [ -59.61658, 13.1353403 ] } },
{ "type": "Feature", "properties": { "full_id": "n5204369562", "osm_id": "5204369562", "osm_type": "node", "ford": null, "tactile_paving": null, "crossing:markings": null, "crossing:island": null, "wikipedia": null, "postal_code": null, "access": null, "country": null, "wikidata": null, "place": "suburb", "name": "Whitepark", "barrier": null, "crossing": null, "traffic_signals": null, "highway": null }, "geometry": { "type": "Point", "coordinates": [ -59.6137422, 13.1028184 ] } },
{ "type": "Feature", "properties": { "full_id": "n5204369637", "osm_id": "5204369637", "osm_type": "node", "ford": null, "tactile_paving": null, "crossing:markings": null, "crossing:island": null, "wikipedia": null, "postal_code": null, "access": null, "country": null, "wikidata": null, "place": "suburb", "name": "Boarded Hall", "barrier": null, "crossing": null, "traffic_signals": null, "highway": null }, "geometry": { "type": "Point", "coordinates": [ -59.5414567, 13.108529 ] } },
{ "type": "Feature", "properties": { "full_id": "n5204369638", "osm_id": "5204369638", "osm_type": "node", "ford": null, "tactile_paving": null, "crossing:markings": null, "crossing:island": null, "wikipedia": null, "postal_code": null, "access": null, "country": null, "wikidata": null, "place": "suburb", "name": "Frere Pilgrim", "barrier": null, "crossing": null, "traffic_signals": null, "highway": null }, "geometry": { "type": "Point", "coordinates": [ -59.5403195, 13.1037641 ] } },
{ "type": "Feature", "properties": { "full_id": "n5204369640", "osm_id": "5204369640", "osm_type": "node", "ford": null, "tactile_paving": null, "crossing:markings": null, "crossing:island": null, "wikipedia": null, "postal_code": null, "access": null, "country": null, "wikidata": null, "place": "suburb", "name": "The Ridge", "barrier": null, "crossing": null, "traffic_signals": null, "highway": null }, "geometry": { "type": "Point", "coordinates": [ -59.528389, 13.094234 ] } },
{ "type": "Feature", "properties": { "full_id": "n5204369641", "osm_id": "5204369641", "osm_type": "node", "ford": null, "tactile_paving": null, "crossing:markings": null, "crossing:island": null, "wikipedia": null, "postal_code": null, "access": null, "country": null, "wikidata": null, "place": "hamlet", "name": "Lower Greys", "barrier": null, "crossing": null, "traffic_signals": null, "highway": null }, "geometry": { "type": "Point", "coordinates": [ -59.5278593, 13.1092772 ] } },
{ "type": "Feature", "properties": { "full_id": "n5204369643", "osm_id": "5204369643", "osm_type": "node", "ford": null, "tactile_paving": null, "crossing:markings": null, "crossing:island": null, "wikipedia": null, "postal_code": null, "access": null, "country": null, "wikidata": null, "place": "suburb", "name": "Edey Village", "barrier": null, "crossing": null, "traffic_signals": null, "highway": null }, "geometry": { "type": "Point", "coordinates": [ -59.5402551, 13.0989154 ] } },
{ "type": "Feature", "properties": { "full_id": "n5204369644", "osm_id": "5204369644", "osm_type": "node", "ford": null, "tactile_paving": null, "crossing:markings": null, "crossing:island": null, "wikipedia": null, "postal_code": null, "access": null, "country": null, "wikidata": null, "place": "suburb", "name": "Searles", "barrier": null, "crossing": null, "traffic_signals": null, "highway": null }, "geometry": { "type": "Point", "coordinates": [ -59.5133901, 13.091935 ] } },
{ "type": "Feature", "properties": { "full_id": "n5204369660", "osm_id": "5204369660", "osm_type": "node", "ford": null, "tactile_paving": null, "crossing:markings": null, "crossing:island": null, "wikipedia": null, "postal_code": null, "access": null, "country": null, "wikidata": null, "place": "suburb", "name": "Lowlands", "barrier": null, "crossing": null, "traffic_signals": null, "highway": null }, "geometry": { "type": "Point", "coordinates": [ -59.5169124, 13.0834572 ] } },
{ "type": "Feature", "properties": { "full_id": "n5204369661", "osm_id": "5204369661", "osm_type": "node", "ford": null, "tactile_paving": null, "crossing:markings": null, "crossing:island": null, "wikipedia": null, "postal_code": null, "access": null, "country": null, "wikidata": null, "place": "suburb", "name": "Balls", "barrier": null, "crossing": null, "traffic_signals": null, "highway": null }, "geometry": { "type": "Point", "coordinates": [ -59.5256701, 13.0811804 ] } },
{ "type": "Feature", "properties": { "full_id": "n5212553388", "osm_id": "5212553388", "osm_type": "node", "ford": null, "tactile_paving": null, "crossing:markings": null, "crossing:island": null, "wikipedia": null, "postal_code": null, "access": null, "country": null, "wikidata": null, "place": "suburb", "name": "Bayville", "barrier": null, "crossing": null, "traffic_signals": null, "highway": null }, "geometry": { "type": "Point", "coordinates": [ -59.6054542, 13.087849 ] } },
{ "type": "Feature", "properties": { "full_id": "n5239997701", "osm_id": "5239997701", "osm_type": "node", "ford": null, "tactile_paving": null, "crossing:markings": null, "crossing:island": null, "wikipedia": null, "postal_code": null, "access": null, "country": null, "wikidata": null, "place": "suburb", "name": "Francia Plantation", "barrier": null, "crossing": null, "traffic_signals": null, "highway": null }, "geometry": { "type": "Point", "coordinates": [ -59.5638156, 13.1433017 ] } },
{ "type": "Feature", "properties": { "full_id": "n5249731052", "osm_id": "5249731052", "osm_type": "node", "ford": null, "tactile_paving": null, "crossing:markings": null, "crossing:island": null, "wikipedia": null, "postal_code": null, "access": null, "country": null, "wikidata": null, "place": "suburb", "name": "Weymouth", "barrier": null, "crossing": null, "traffic_signals": null, "highway": null }, "geometry": { "type": "Point", "coordinates": [ -59.6098209, 13.1023325 ] } },
{ "type": "Feature", "properties": { "full_id": "n5373793495", "osm_id": "5373793495", "osm_type": "node", "ford": null, "tactile_paving": null, "crossing:markings": null, "crossing:island": null, "wikipedia": null, "postal_code": "BB20031", "access": null, "country": null, "wikidata": null, "place": "village", "name": "St. Judes", "barrier": null, "crossing": null, "traffic_signals": null, "highway": null }, "geometry": { "type": "Point", "coordinates": [ -59.5365406, 13.1570103 ] } },
{ "type": "Feature", "properties": { "full_id": "n5373793496", "osm_id": "5373793496", "osm_type": "node", "ford": null, "tactile_paving": null, "crossing:markings": null, "crossing:island": null, "wikipedia": null, "postal_code": null, "access": null, "country": null, "wikidata": null, "place": "village", "name": "Superlative", "barrier": null, "crossing": null, "traffic_signals": null, "highway": null }, "geometry": { "type": "Point", "coordinates": [ -59.5415211, 13.1571968 ] } },
{ "type": "Feature", "properties": { "full_id": "n7313277335", "osm_id": "7313277335", "osm_type": "node", "ford": null, "tactile_paving": null, "crossing:markings": null, "crossing:island": null, "wikipedia": null, "postal_code": null, "access": null, "country": null, "wikidata": null, "place": null, "name": null, "barrier": null, "crossing": "zebra", "traffic_signals": null, "highway": "crossing" }, "geometry": { "type": "Point", "coordinates": [ -59.6146426, 13.102236 ] } },
{ "type": "Feature", "properties": { "full_id": "n7618448990", "osm_id": "7618448990", "osm_type": "node", "ford": null, "tactile_paving": null, "crossing:markings": null, "crossing:island": null, "wikipedia": null, "postal_code": null, "access": null, "country": null, "wikidata": null, "place": "village", "name": "Deanes", "barrier": null, "crossing": null, "traffic_signals": null, "highway": null }, "geometry": { "type": "Point", "coordinates": [ -59.6134546, 13.2134966 ] } },
{ "type": "Feature", "properties": { "full_id": "n7618570962", "osm_id": "7618570962", "osm_type": "node", "ford": null, "tactile_paving": null, "crossing:markings": null, "crossing:island": null, "wikipedia": null, "postal_code": "BB22007", "access": null, "country": null, "wikidata": null, "place": "village", "name": "Dunscombe", "barrier": null, "crossing": null, "traffic_signals": null, "highway": null }, "geometry": { "type": "Point", "coordinates": [ -59.5935631, 13.1959023 ] } },
{ "type": "Feature", "properties": { "full_id": "n8089781395", "osm_id": "8089781395", "osm_type": "node", "ford": null, "tactile_paving": null, "crossing:markings": null, "crossing:island": null, "wikipedia": null, "postal_code": null, "access": null, "country": null, "wikidata": null, "place": "neighbourhood", "name": "Cane Garden", "barrier": null, "crossing": null, "traffic_signals": null, "highway": null }, "geometry": { "type": "Point", "coordinates": [ -59.5961816, 13.1506942 ] } },
{ "type": "Feature", "properties": { "full_id": "n8089781396", "osm_id": "8089781396", "osm_type": "node", "ford": null, "tactile_paving": null, "crossing:markings": null, "crossing:island": null, "wikipedia": null, "postal_code": null, "access": null, "country": null, "wikidata": null, "place": "village", "name": "Edge Hill", "barrier": null, "crossing": null, "traffic_signals": null, "highway": null }, "geometry": { "type": "Point", "coordinates": [ -59.6012671, 13.1588431 ] } },
{ "type": "Feature", "properties": { "full_id": "n8089827946", "osm_id": "8089827946", "osm_type": "node", "ford": null, "tactile_paving": null, "crossing:markings": null, "crossing:island": null, "wikipedia": null, "postal_code": "BB22008", "access": null, "country": null, "wikidata": null, "place": "village", "name": "Rock Hall", "barrier": null, "crossing": null, "traffic_signals": null, "highway": null }, "geometry": { "type": "Point", "coordinates": [ -59.6000654, 13.188156 ] } },
{ "type": "Feature", "properties": { "full_id": "n8151088316", "osm_id": "8151088316", "osm_type": "node", "ford": null, "tactile_paving": null, "crossing:markings": null, "crossing:island": null, "wikipedia": "en:Four Roads, Barbados", "postal_code": null, "access": null, "country": null, "wikidata": "Q5475455", "place": "village", "name": "Four Roads", "barrier": null, "crossing": null, "traffic_signals": null, "highway": null }, "geometry": { "type": "Point", "coordinates": [ -59.4721085, 13.1099009 ] } },
{ "type": "Feature", "properties": { "full_id": "n8151112419", "osm_id": "8151112419", "osm_type": "node", "ford": null, "tactile_paving": null, "crossing:markings": null, "crossing:island": null, "wikipedia": null, "postal_code": "BB18090", "access": null, "country": null, "wikidata": null, "place": "hamlet", "name": "Rices", "barrier": null, "crossing": null, "traffic_signals": null, "highway": null }, "geometry": { "type": "Point", "coordinates": [ -59.4547386, 13.1034745 ] } },
{ "type": "Feature", "properties": { "full_id": "n8151206819", "osm_id": "8151206819", "osm_type": "node", "ford": null, "tactile_paving": null, "crossing:markings": null, "crossing:island": null, "wikipedia": "en:Church Village, Barbados", "postal_code": null, "access": null, "country": null, "wikidata": "Q5116729", "place": "village", "name": "Church Village", "barrier": null, "crossing": null, "traffic_signals": null, "highway": null }, "geometry": { "type": "Point", "coordinates": [ -59.4877178, 13.1391826 ] } },
{ "type": "Feature", "properties": { "full_id": "n8151649926", "osm_id": "8151649926", "osm_type": "node", "ford": null, "tactile_paving": null, "crossing:markings": null, "crossing:island": null, "wikipedia": null, "postal_code": null, "access": null, "country": null, "wikidata": null, "place": "neighbourhood", "name": "Marchfield Village", "barrier": null, "crossing": null, "traffic_signals": null, "highway": null }, "geometry": { "type": "Point", "coordinates": [ -59.4811716, 13.1198702 ] } },
{ "type": "Feature", "properties": { "full_id": "n8156056236", "osm_id": "8156056236", "osm_type": "node", "ford": null, "tactile_paving": null, "crossing:markings": null, "crossing:island": null, "wikipedia": null, "postal_code": null, "access": null, "country": null, "wikidata": null, "place": "neighbourhood", "name": "Mangrove Park", "barrier": null, "crossing": null, "traffic_signals": null, "highway": null }, "geometry": { "type": "Point", "coordinates": [ -59.4717038, 13.0997601 ] } },
{ "type": "Feature", "properties": { "full_id": "n8156117239", "osm_id": "8156117239", "osm_type": "node", "ford": null, "tactile_paving": null, "crossing:markings": null, "crossing:island": null, "wikipedia": null, "postal_code": null, "access": null, "country": null, "wikidata": null, "place": "village", "name": "Oldbury", "barrier": null, "crossing": null, "traffic_signals": null, "highway": null }, "geometry": { "type": "Point", "coordinates": [ -59.4760168, 13.0935948 ] } },
{ "type": "Feature", "properties": { "full_id": "n8165975379", "osm_id": "8165975379", "osm_type": "node", "ford": null, "tactile_paving": null, "crossing:markings": null, "crossing:island": null, "wikipedia": null, "postal_code": null, "access": null, "country": null, "wikidata": null, "place": "neighbourhood", "name": "Oldbury Terrace", "barrier": null, "crossing": null, "traffic_signals": null, "highway": null }, "geometry": { "type": "Point", "coordinates": [ -59.4714652, 13.0960833 ] } },
{ "type": "Feature", "properties": { "full_id": "n8329544345", "osm_id": "8329544345", "osm_type": "node", "ford": null, "tactile_paving": null, "crossing:markings": null, "crossing:island": null, "wikipedia": null, "postal_code": null, "access": null, "country": null, "wikidata": null, "place": "village", "name": "Castle Heights", "barrier": null, "crossing": null, "traffic_signals": null, "highway": null }, "geometry": { "type": "Point", "coordinates": [ -59.4375467, 13.133935 ] } },
{ "type": "Feature", "properties": { "full_id": "n9198218651", "osm_id": "9198218651", "osm_type": "node", "ford": null, "tactile_paving": null, "crossing:markings": null, "crossing:island": null, "wikipedia": null, "postal_code": null, "access": null, "country": null, "wikidata": null, "place": "neighbourhood", "name": "Lower Kirtons", "barrier": null, "crossing": null, "traffic_signals": null, "highway": null }, "geometry": { "type": "Point", "coordinates": [ -59.4678039, 13.1057239 ] } },
{ "type": "Feature", "properties": { "full_id": "n9198422178", "osm_id": "9198422178", "osm_type": "node", "ford": null, "tactile_paving": null, "crossing:markings": null, "crossing:island": null, "wikipedia": null, "postal_code": null, "access": null, "country": null, "wikidata": null, "place": "neighbourhood", "name": "St. Martin's Terrace", "barrier": null, "crossing": null, "traffic_signals": null, "highway": null }, "geometry": { "type": "Point", "coordinates": [ -59.4665286, 13.0986633 ] } },
{ "type": "Feature", "properties": { "full_id": "n9201407925", "osm_id": "9201407925", "osm_type": "node", "ford": null, "tactile_paving": null, "crossing:markings": null, "crossing:island": null, "wikipedia": null, "postal_code": null, "access": null, "country": null, "wikidata": null, "place": "neighbourhood", "name": "Clermont Greens", "barrier": null, "crossing": null, "traffic_signals": null, "highway": null }, "geometry": { "type": "Point", "coordinates": [ -59.6159757, 13.1446072 ] } },
{ "type": "Feature", "properties": { "full_id": "n9201407926", "osm_id": "9201407926", "osm_type": "node", "ford": null, "tactile_paving": null, "crossing:markings": null, "crossing:island": null, "wikipedia": null, "postal_code": null, "access": null, "country": null, "wikidata": null, "place": "neighbourhood", "name": "Clermont Gardens", "barrier": null, "crossing": null, "traffic_signals": null, "highway": null }, "geometry": { "type": "Point", "coordinates": [ -59.6167889, 13.1439854 ] } },
{ "type": "Feature", "properties": { "full_id": "n9201407939", "osm_id": "9201407939", "osm_type": "node", "ford": null, "tactile_paving": null, "crossing:markings": null, "crossing:island": null, "wikipedia": null, "postal_code": null, "access": null, "country": null, "wikidata": null, "place": "neighbourhood", "name": "Clerpark", "barrier": null, "crossing": null, "traffic_signals": null, "highway": null }, "geometry": { "type": "Point", "coordinates": [ -59.6150185, 13.1444935 ] } },
{ "type": "Feature", "properties": { "full_id": "n9201407940", "osm_id": "9201407940", "osm_type": "node", "ford": null, "tactile_paving": null, "crossing:markings": null, "crossing:island": null, "wikipedia": null, "postal_code": null, "access": null, "country": null, "wikidata": null, "place": "neighbourhood", "name": "Clermont Terrace South", "barrier": null, "crossing": null, "traffic_signals": null, "highway": null }, "geometry": { "type": "Point", "coordinates": [ -59.6136635, 13.142754 ] } },
{ "type": "Feature", "properties": { "full_id": "n9201407955", "osm_id": "9201407955", "osm_type": "node", "ford": null, "tactile_paving": null, "crossing:markings": null, "crossing:island": null, "wikipedia": null, "postal_code": null, "access": null, "country": null, "wikidata": null, "place": "neighbourhood", "name": "Glynor Gardens", "barrier": null, "crossing": null, "traffic_signals": null, "highway": null }, "geometry": { "type": "Point", "coordinates": [ -59.6176137, 13.1454938 ] } },
{ "type": "Feature", "properties": { "full_id": "n9201407956", "osm_id": "9201407956", "osm_type": "node", "ford": null, "tactile_paving": null, "crossing:markings": null, "crossing:island": null, "wikipedia": null, "postal_code": null, "access": null, "country": null, "wikidata": null, "place": "neighbourhood", "name": "Crystal Court Condominiums", "barrier": null, "crossing": null, "traffic_signals": null, "highway": null }, "geometry": { "type": "Point", "coordinates": [ -59.6184205, 13.1461464 ] } },
{ "type": "Feature", "properties": { "full_id": "n9201407964", "osm_id": "9201407964", "osm_type": "node", "ford": null, "tactile_paving": null, "crossing:markings": null, "crossing:island": null, "wikipedia": null, "postal_code": null, "access": null, "country": null, "wikidata": null, "place": "neighbourhood", "name": "Crystal Heights", "barrier": null, "crossing": null, "traffic_signals": null, "highway": null }, "geometry": { "type": "Point", "coordinates": [ -59.6181721, 13.1469931 ] } },
{ "type": "Feature", "properties": { "full_id": "n9220028407", "osm_id": "9220028407", "osm_type": "node", "ford": null, "tactile_paving": null, "crossing:markings": null, "crossing:island": null, "wikipedia": null, "postal_code": null, "access": null, "country": null, "wikidata": null, "place": "village", "name": "Shrewbury", "barrier": null, "crossing": null, "traffic_signals": null, "highway": null }, "geometry": { "type": "Point", "coordinates": [ -59.4354053, 13.1359785 ] } },
{ "type": "Feature", "properties": { "full_id": "n9220028408", "osm_id": "9220028408", "osm_type": "node", "ford": null, "tactile_paving": null, "crossing:markings": null, "crossing:island": null, "wikipedia": null, "postal_code": null, "access": null, "country": null, "wikidata": null, "place": "village", "name": "Bequest", "barrier": null, "crossing": null, "traffic_signals": null, "highway": null }, "geometry": { "type": "Point", "coordinates": [ -59.4326625, 13.1330086 ] } },
{ "type": "Feature", "properties": { "full_id": "n9220047731", "osm_id": "9220047731", "osm_type": "node", "ford": null, "tactile_paving": null, "crossing:markings": null, "crossing:island": null, "wikipedia": null, "postal_code": null, "access": null, "country": null, "wikidata": null, "place": "village", "name": "Harmony Hall", "barrier": null, "crossing": null, "traffic_signals": null, "highway": null }, "geometry": { "type": "Point", "coordinates": [ -59.4362532, 13.1345513 ] } },
{ "type": "Feature", "properties": { "full_id": "n9494089138", "osm_id": "9494089138", "osm_type": "node", "ford": null, "tactile_paving": null, "crossing:markings": null, "crossing:island": null, "wikipedia": null, "postal_code": null, "access": null, "country": null, "wikidata": null, "place": "neighbourhood", "name": "Well Gap", "barrier": null, "crossing": null, "traffic_signals": null, "highway": null }, "geometry": { "type": "Point", "coordinates": [ -59.6200557, 13.1369583 ] } },
{ "type": "Feature", "properties": { "full_id": "n9494090037", "osm_id": "9494090037", "osm_type": "node", "ford": null, "tactile_paving": null, "crossing:markings": null, "crossing:island": null, "wikipedia": null, "postal_code": null, "access": null, "country": null, "wikidata": null, "place": "neighbourhood", "name": "Lodge Crescent", "barrier": null, "crossing": null, "traffic_signals": null, "highway": null }, "geometry": { "type": "Point", "coordinates": [ -59.6135381, 13.137565 ] } },
{ "type": "Feature", "properties": { "full_id": "n9519493103", "osm_id": "9519493103", "osm_type": "node", "ford": null, "tactile_paving": null, "crossing:markings": null, "crossing:island": null, "wikipedia": null, "postal_code": null, "access": null, "country": null, "wikidata": null, "place": "neighbourhood", "name": "Astoria", "barrier": null, "crossing": null, "traffic_signals": null, "highway": null }, "geometry": { "type": "Point", "coordinates": [ -59.5787574, 13.1433595 ] } },
{ "type": "Feature", "properties": { "full_id": "n9598698172", "osm_id": "9598698172", "osm_type": "node", "ford": null, "tactile_paving": null, "crossing:markings": null, "crossing:island": null, "wikipedia": null, "postal_code": null, "access": null, "country": null, "wikidata": null, "place": "neighbourhood", "name": "Chapel", "barrier": null, "crossing": null, "traffic_signals": null, "highway": null }, "geometry": { "type": "Point", "coordinates": [ -59.4904897, 13.1349398 ] } },
{ "type": "Feature", "properties": { "full_id": "n9651965334", "osm_id": "9651965334", "osm_type": "node", "ford": null, "tactile_paving": null, "crossing:markings": null, "crossing:island": null, "wikipedia": "en:Lancaster, Saint James, Barbados", "postal_code": null, "access": null, "country": null, "wikidata": null, "place": "village", "name": "Lancaster", "barrier": null, "crossing": null, "traffic_signals": null, "highway": null }, "geometry": { "type": "Point", "coordinates": [ -59.6196209, 13.2034772 ] } },
{ "type": "Feature", "properties": { "full_id": "n9671161673", "osm_id": "9671161673", "osm_type": "node", "ford": null, "tactile_paving": null, "crossing:markings": null, "crossing:island": null, "wikipedia": null, "postal_code": null, "access": null, "country": null, "wikidata": null, "place": "hamlet", "name": "Bulkeley", "barrier": null, "crossing": null, "traffic_signals": null, "highway": null }, "geometry": { "type": "Point", "coordinates": [ -59.5493099, 13.1225189 ] } },
{ "type": "Feature", "properties": { "full_id": "n9829775042", "osm_id": "9829775042", "osm_type": "node", "ford": null, "tactile_paving": null, "crossing:markings": null, "crossing:island": null, "wikipedia": null, "postal_code": null, "access": null, "country": null, "wikidata": null, "place": "neighbourhood", "name": "Coverley", "barrier": null, "crossing": null, "traffic_signals": null, "highway": null }, "geometry": { "type": "Point", "coordinates": [ -59.5021682, 13.0820102 ] } },
{ "type": "Feature", "properties": { "full_id": "n9864924986", "osm_id": "9864924986", "osm_type": "node", "ford": null, "tactile_paving": null, "crossing:markings": null, "crossing:island": null, "wikipedia": null, "postal_code": null, "access": null, "country": null, "wikidata": null, "place": "neighbourhood", "name": "Lowthers", "barrier": null, "crossing": null, "traffic_signals": null, "highway": null }, "geometry": { "type": "Point", "coordinates": [ -59.4885809, 13.0982317 ] } },
{ "type": "Feature", "properties": { "full_id": "n9864924993", "osm_id": "9864924993", "osm_type": "node", "ford": null, "tactile_paving": null, "crossing:markings": null, "crossing:island": null, "wikipedia": null, "postal_code": null, "access": null, "country": null, "wikidata": null, "place": "isolated_dwelling", "name": "Hopefield", "barrier": null, "crossing": null, "traffic_signals": null, "highway": null }, "geometry": { "type": "Point", "coordinates": [ -59.4874447, 13.0922132 ] } },
{ "type": "Feature", "properties": { "full_id": "n9875595944", "osm_id": "9875595944", "osm_type": "node", "ford": null, "tactile_paving": null, "crossing:markings": null, "crossing:island": null, "wikipedia": null, "postal_code": null, "access": null, "country": null, "wikidata": null, "place": "hamlet", "name": "Yorkshire", "barrier": null, "crossing": null, "traffic_signals": null, "highway": null }, "geometry": { "type": "Point", "coordinates": [ -59.5095517, 13.1029918 ] } },
{ "type": "Feature", "properties": { "full_id": "n9897801695", "osm_id": "9897801695", "osm_type": "node", "ford": null, "tactile_paving": null, "crossing:markings": null, "crossing:island": null, "wikipedia": null, "postal_code": null, "access": null, "country": null, "wikidata": null, "place": "neighbourhood", "name": "Arch Hall", "barrier": null, "crossing": null, "traffic_signals": null, "highway": null }, "geometry": { "type": "Point", "coordinates": [ -59.6161389, 13.1802627 ] } },
{ "type": "Feature", "properties": { "full_id": "n9962863228", "osm_id": "9962863228", "osm_type": "node", "ford": null, "tactile_paving": null, "crossing:markings": null, "crossing:island": null, "wikipedia": null, "postal_code": null, "access": null, "country": null, "wikidata": null, "place": "hamlet", "name": "Work Hall", "barrier": null, "crossing": null, "traffic_signals": null, "highway": null }, "geometry": { "type": "Point", "coordinates": [ -59.4477094, 13.1246348 ] } },
{ "type": "Feature", "properties": { "full_id": "n10173740989", "osm_id": "10173740989", "osm_type": "node", "ford": null, "tactile_paving": null, "crossing:markings": null, "crossing:island": null, "wikipedia": null, "postal_code": null, "access": null, "country": null, "wikidata": null, "place": "neighbourhood", "name": "Welches", "barrier": null, "crossing": null, "traffic_signals": null, "highway": null }, "geometry": { "type": "Point", "coordinates": [ -59.6007113, 13.1040032 ] } },
{ "type": "Feature", "properties": { "full_id": "n10788582593", "osm_id": "10788582593", "osm_type": "node", "ford": null, "tactile_paving": null, "crossing:markings": null, "crossing:island": null, "wikipedia": null, "postal_code": null, "access": null, "country": null, "wikidata": null, "place": null, "name": null, "barrier": null, "crossing": "uncontrolled", "traffic_signals": null, "highway": "crossing" }, "geometry": { "type": "Point", "coordinates": [ -59.6279802, 13.1371816 ] } },
{ "type": "Feature", "properties": { "full_id": "n10788582594", "osm_id": "10788582594", "osm_type": "node", "ford": null, "tactile_paving": null, "crossing:markings": null, "crossing:island": null, "wikipedia": null, "postal_code": null, "access": null, "country": null, "wikidata": null, "place": null, "name": null, "barrier": null, "crossing": "uncontrolled", "traffic_signals": null, "highway": "crossing" }, "geometry": { "type": "Point", "coordinates": [ -59.6282518, 13.1370814 ] } },
{ "type": "Feature", "properties": { "full_id": "n10788582601", "osm_id": "10788582601", "osm_type": "node", "ford": null, "tactile_paving": null, "crossing:markings": null, "crossing:island": null, "wikipedia": null, "postal_code": null, "access": null, "country": null, "wikidata": null, "place": null, "name": null, "barrier": null, "crossing": "uncontrolled", "traffic_signals": null, "highway": "crossing" }, "geometry": { "type": "Point", "coordinates": [ -59.6311309, 13.1370442 ] } },
{ "type": "Feature", "properties": { "full_id": "n10916838673", "osm_id": "10916838673", "osm_type": "node", "ford": null, "tactile_paving": "no", "crossing:markings": "zebra", "crossing:island": "no", "wikipedia": null, "postal_code": null, "access": null, "country": null, "wikidata": null, "place": null, "name": null, "barrier": null, "crossing": "uncontrolled", "traffic_signals": null, "highway": "crossing" }, "geometry": { "type": "Point", "coordinates": [ -59.5441185, 13.1202954 ] } },
{ "type": "Feature", "properties": { "full_id": "n10916838691", "osm_id": "10916838691", "osm_type": "node", "ford": "yes", "tactile_paving": null, "crossing:markings": null, "crossing:island": null, "wikipedia": null, "postal_code": null, "access": null, "country": null, "wikidata": null, "place": null, "name": null, "barrier": null, "crossing": null, "traffic_signals": null, "highway": null }, "geometry": { "type": "Point", "coordinates": [ -59.5449541, 13.1160697 ] } },
{ "type": "Feature", "properties": { "full_id": "n11802679984", "osm_id": "11802679984", "osm_type": "node", "ford": null, "tactile_paving": null, "crossing:markings": null, "crossing:island": null, "wikipedia": null, "postal_code": null, "access": null, "country": null, "wikidata": null, "place": null, "name": null, "barrier": null, "crossing": null, "traffic_signals": null, "highway": "crossing" }, "geometry": { "type": "Point", "coordinates": [ -59.6238162, 13.1358374 ] } },
{ "type": "Feature", "properties": { "full_id": "n11822763881", "osm_id": "11822763881", "osm_type": "node", "ford": null, "tactile_paving": null, "crossing:markings": null, "crossing:island": null, "wikipedia": null, "postal_code": null, "access": null, "country": null, "wikidata": null, "place": null, "name": null, "barrier": null, "crossing": null, "traffic_signals": null, "highway": "crossing" }, "geometry": { "type": "Point", "coordinates": [ -59.6015405, 13.1022 ] } },
{ "type": "Feature", "properties": { "full_id": "n11823032517", "osm_id": "11823032517", "osm_type": "node", "ford": null, "tactile_paving": null, "crossing:markings": null, "crossing:island": null, "wikipedia": null, "postal_code": null, "access": null, "country": null, "wikidata": null, "place": null, "name": null, "barrier": null, "crossing": null, "traffic_signals": null, "highway": "crossing" }, "geometry": { "type": "Point", "coordinates": [ -59.530206, 13.0805665 ] } },
{ "type": "Feature", "properties": { "full_id": "n11831867836", "osm_id": "11831867836", "osm_type": "node", "ford": null, "tactile_paving": null, "crossing:markings": null, "crossing:island": null, "wikipedia": null, "postal_code": null, "access": null, "country": null, "wikidata": null, "place": null, "name": null, "barrier": null, "crossing": null, "traffic_signals": null, "highway": "crossing" }, "geometry": { "type": "Point", "coordinates": [ -59.6104488, 13.1023234 ] } },
{ "type": "Feature", "properties": { "full_id": "n11831876676", "osm_id": "11831876676", "osm_type": "node", "ford": null, "tactile_paving": null, "crossing:markings": null, "crossing:island": null, "wikipedia": null, "postal_code": null, "access": null, "country": null, "wikidata": null, "place": null, "name": null, "barrier": null, "crossing": null, "traffic_signals": null, "highway": "crossing" }, "geometry": { "type": "Point", "coordinates": [ -59.6080303, 13.1026572 ] } }
]
}
